[{"fsq_id": "52829ed9498e38bcbc13b222", "categories": [{"id": 11030, "name": "Design Studio", "short_name": "Design", "plural_name": "Design Studios", "icon": {"prefix": "https://ss3.4sqi.net/img/categories_v2/shops/design_", "suffix": ".png"}}], "chains": [], "closed_bucket": "LikelyClosed", "distance": 248, "geocodes": {"main": {"latitude": 37.782543, "longitude": -122.410848}, "roof": {"latitude": 37.782543, "longitude": -122.410848}}, "link": "/v3/places/52829ed9498e38bcbc13b222", "location": {"address": "25 Taylor St", "census_block": "060750125033001", "country": "US", "cross_street": "Golden Gate Avenue", "dma": "San Francisco-Oakland-San Jose", "formatted_address": "25 Taylor St (Golden Gate Avenue), San Francisco, CA 94102", "locality": "San Francisco", "postcode": "94102", "region": "CA"}, "name": "Design Rehab", "related_places": {}, "timezone": "America/Los_Angeles"}, {"fsq_id": "4d1549868312236ac80f51ba", "categories": [{"id": 17056, "name": "Flower Store", "short_name": "Flower Store", "plural_name": "Flower Stores", "icon": {"prefix": "https://ss3.4sqi.net/img/categories_v2/shops/flowershop_", "suffix": ".png"}}], "chains": [], "closed_bucket": "Unsure", "distance": 1250, "geocodes": {"main": {"latitude": 37.788567, "longitude": -122.420092}, "roof": {"latitude": 37.788567, "longitude": -122.420092}}, "link": "/v3/places/4d1549868312236ac80f51ba", "location": {"address": "1288 Polk St", "census_block": "060750120011001", "country": "US", "cross_street": "at Bush St", "dma": "San Francisco-Oakland-San Jose", "formatted_address": "1288 Polk St (at Bush St), San Francisco, CA 94109", "locality": "San Francisco", "postcode": "94109", "region": "CA"}, "name": "Utsuwa Floral Design", "related_places": {}, "timezone": "America/Los_Angeles"}, {"fsq_id": "49c5581af964a520f8561fe3", "categories": [{"id": 11169, "name": "Website Designer", "short_name": "Website Designer", "plural_name": "Website Designers", "icon": {"prefix": "https://ss3.4sqi.net/img/categories_v2/building/default_", "suffix": ".png"}}], "chains": [], "closed_bucket": "Unsure", "distance": 1922, "geocodes": {"drop_off": {"latitude": 37.764747, "longitude": -122.419659}, "main": {"latitude": 37.764771, "longitude": -122.419403}, "roof": {"latitude": 37.764771, "longitude": -122.419403}}, "link": "/v3/places/49c5581af964a520f8561fe3", "location": {"address": "2017 Mission St", "address_extended": "Ste 300", "census_block": "060750201022001", "country": "US", "cross_street": "at 16th St", "dma": "San Francisco-Oakland-San Jose", "formatted_address": "2017 Mission St (at 16th St), San Francisco, CA 94110", "locality": "San Francisco", "postcode": "94110", "region": "CA"}, "name": "Stamen Design", "related_places": {}, "timezone": "America/Los_Angeles"}, {"fsq_id": "4cfe7f0fdccef04d300ecb9c", "categories": [{"id": 11039, "name": "Event Space", "short_name": "Event Space", "plural_name": "Event Spaces", "icon": {"prefix": "https://ss3.4sqi.net/img/categories_v2/building/eventspace_", "suffix": ".png"}}, {"id": 10000, "name": "Arts and Entertainment", "short_name": "Arts & Entertainment", "plural_name": "Arts and Entertainment", "icon": {"prefix": "https://ss3.4sqi.net/img/categories_v2/arts_entertainment/default_", "suffix": ".png"}}], "chains": [], "closed_bucket": "VeryLikelyOpen", "distance": 1495, "geocodes": {"main": {"latitude": 37.768186, "longitude": -122.403335}, "roof": {"latitude": 37.768186, "longitude": -122.403335}}, "link": "/v3/places/4cfe7f0fdccef04d300ecb9c", "location": {"address": "101 Henry Adams St", "census_block": "060750607021014", "country": "US", "dma": "San Francisco-Oakland-San Jose", "formatted_address": "101 Henry Adams St, San Francisco, CA 94103", "locality": "San Francisco", "postcode": "94103", "region": "CA"}, "name": "San Francisco Design Center Galleria", "related_places": {"children": [{"fsq_id": "55c4e8df498e92fb548d3e86", "categories": [{"id": 17082, "name": "Furniture and Home Store", "short_name": "Furniture and Home Store", "plural_name": "Furniture and Home Stores", "icon": {"prefix": "https://ss3.4sqi.net/img/categories_v2/shops/furniture_", "suffix": ".png"}}], "name": "Poliform San Francisco"}]}, "timezone": "America/Los_Angeles"}, {"fsq_id": "59dff31226659b77af4ffb7a", "categories": [{"id": 17094, "name": "Luggage Store", "short_name": "Luggage Store", "plural_name": "Luggage Stores", "icon": {"prefix": "https://ss3.4sqi.net/img/categories_v2/travel/default_", "suffix": ".png"}}], "chains": [], "closed_bucket": "VeryLikelyOpen", "distance": 1368, "geocodes": {"drop_off": {"latitude": 37.776617, "longitude": -122.425133}, "main": {"latitude": 37.776423, "longitude": -122.425109}, "roof": {"latitude": 37.776423, "longitude": -122.425109}}, "link": "/v3/places/59dff31226659b77af4ffb7a", "location": {"address": "529 Hayes St", "census_block": "060750162003004", "country": "US", "cross_street": "Octavia st", "dma": "San Francisco-Oakland-San Jose", "formatted_address": "529 Hayes St (Octavia st), San Francisco, CA 94102", "locality": "San Francisco", "postcode": "94102", "region": "CA"}, "name": "Peak Design", "related_places": {}, "timezone": "America/Los_Angeles"}, {"fsq_id": "4b2c1ae0f964a520b7c124e3", "categories": [{"id": 11064, "name": "Hair Salon", "short_name": "Hair Salon", "plural_name": "Hair Salons", "icon": {"prefix": "https://ss3.4sqi.net/img/categories_v2/shops/salon_barber_", "suffix": ".png"}}], "chains": [], "closed_bucket": "VeryLikelyOpen", "distance": 2982, "geocodes": {"drop_off": {"latitude": 37.762127, "longitude": -122.435147}, "main": {"latitude": 37.762139, "longitude": -122.435013}, "roof": {"latitude": 37.762139, "longitude": -122.435013}}, "link": "/v3/places/4b2c1ae0f964a520b7c124e3", "location": {"address": "421 Castro St", "census_block": "060750206012004", "country": "US", "cross_street": "btwn 17th St. & Market St.", "dma": "San Francisco-Oakland-San Jose", "formatted_address": "421 Castro St (btwn 17th St. & Market St.), San Francisco, CA 94114", "locality": "San Francisco", "postcode": "94114", "region": "CA"}, "name": "Lisa's Hair Design", "related_places": {}, "timezone": "America/Los_Angeles"}, {"fsq_id": "4a70d52cf964a5208fd81fe3", "categories": [{"id": 13068, "name": "American Restaurant", "short_name": "American", "plural_name": "American Restaurants", "icon": {"prefix": "https://ss3.4sqi.net/img/categories_v2/food/default_", "suffix": ".png"}}, {"id": 10000, "name": "Arts and Entertainment", "short_name": "Arts & Entertainment", "plural_name": "Arts and Entertainment", "icon": {"prefix": "https://ss3.4sqi.net/img/categories_v2/arts_entertainment/default_", "suffix": ".png"}}], "chains": [], "closed_bucket": "Unsure", "distance": 1333, "geocodes": {"drop_off": {"latitude": 37.769101, "longitude": -122.403945}, "main": {"latitude": 37.769048, "longitude": -122.404461}, "roof": {"latitude": 37.769048, "longitude": -122.404461}}, "link": "/v3/places/4a70d52cf964a5208fd81fe3", "location": {"address": "2 Henry Adams St", "census_block": "060750607021007", "country": "US", "cross_street": "at Townsend St", "dma": "San Francisco-Oakland-San Jose", "formatted_address": "2 Henry Adams St (at Townsend St), San Francisco, CA 94103", "locality": "San Francisco", "postcode": "94103", "region": "CA"}, "name": "San Francisco Design Center Showplace & Garden Court", "related_places": {"children": []}, "timezone": "America/Los_Angeles"}, {"fsq_id": "4cf43c681457a09034b348c6", "categories": [{"id": 17043, "name": "Clothing Store", "short_name": "Apparel", "plural_name": "Clothing Stores", "icon": {"prefix": "https://ss3.4sqi.net/img/categories_v2/shops/apparel_", "suffix": ".png"}}], "chains": [], "closed_bucket": "VeryLikelyClosed", "distance": 1404, "geocodes": {"drop_off": {"latitude": 37.776571, "longitude": -122.42549}, "main": {"latitude": 37.776363, "longitude": -122.425464}, "roof": {"latitude": 37.776363, "longitude": -122.425464}}, "link": "/v3/places/4cf43c681457a09034b348c6", "location": {"address": "551 Hayes St", "census_block": "060750162003004", "country": "US", "cross_street": "btwn Laguna & Octavia St.", "dma": "San Francisco-Oakland-San Jose", "formatted_address": "551 Hayes St (btwn Laguna & Octavia St.), San Francisco, CA 94102", "locality": "San Francisco", "postcode": "94102", "region": "CA"}, "name": "Triple Aught Design", "related_places": {}, "timezone": "America/Los_Angeles"}, {"fsq_id": "4cb7837fbac937048f27d57c", "categories": [{"id": 10004, "name": "Art Gallery", "short_name": "Art Gallery", "plural_name": "Art Galleries", "icon": {"prefix": "https://ss3.4sqi.net/img/categories_v2/arts_entertainment/artgallery_", "suffix": ".png"}}], "chains": [], "closed_bucket": "LikelyOpen", "distance": 1497, "geocodes": {"main": {"latitude": 37.768018, "longitude": -122.403396}, "roof": {"latitude": 37.768018, "longitude": -122.403396}}, "link": "/v3/places/4cb7837fbac937048f27d57c", "location": {"address": "101 Henry Adams St", "census_block": "060750607021014", "country": "US", "dma": "San Francisco-Oakland-San Jose", "formatted_address": "101 Henry Adams St, San Francisco, CA 94103", "locality": "San Francisco", "postcode": "94103", "region": "CA"}, "name": "Perry's at the Design Center", "related_places": {"children": [{"fsq_id": "5af213102d2fd9002c066369", "categories": [{"id": 11079, "name": "Carpet and Flooring Contractor", "short_name": "Carpet and Flooring Contractor", "plural_name": "Carpet and Flooring Contractors", "icon": {"prefix": "https://ss3.4sqi.net/img/categories_v2/shops/hardware_", "suffix": ".png"}}, {"id": 11086, "name": "General Contractor", "short_name": "General Contractor", "plural_name": "General Contractors", "icon": {"prefix": "https://ss3.4sqi.net/img/categories_v2/shops/hardware_", "suffix": ".png"}}], "name": "Country Floors"}]}, "timezone": "America/Los_Angeles"}, {"fsq_id": "52ab389311d29783154b9dea", "categories": [{"id": 17082, "name": "Furniture and Home Store", "short_name": "Furniture and Home Store", "plural_name": "Furniture and Home Stores", "icon": {"prefix": "https://ss3.4sqi.net/img/categories_v2/shops/furniture_", "suffix": ".png"}}], "chains": [], "closed_bucket": "VeryLikelyOpen", "distance": 1593, "geocodes": {"main": {"latitude": 37.766771, "longitude": -122.404326}, "roof": {"latitude": 37.766771, "longitude": -122.404326}}, "link": "/v3/places/52ab389311d29783154b9dea", "location": {"address": "200 Kansas St", "address_extended": "Lbby 1", "census_block": "060750607021026", "country": "US", "dma": "San Francisco-Oakland-San Jose", "formatted_address": "200 Kansas St, San Francisco, CA 94103", "locality": "San Francisco", "postcode": "94103", "region": "CA"}, "name": "Design Within Reach", "related_places": {}, "timezone": "America/Los_Angeles"}]