[{"fsq_id": "fd26b970de0648bd470e2915", "categories": [{"id": 11000, "name": "Business and Professional Services", "short_name": "Business and Professional Services", "plural_name": "Business and Professional Services", "icon": {"prefix": "https://ss3.4sqi.net/img/categories_v2/building/default_", "suffix": ".png"}}], "chains": [], "closed_bucket": "VeryLikelyClosed", "distance": 12614, "geocodes": {"main": {"latitude": 37.83819, "longitude": -122.286634}, "roof": {"latitude": 37.83819, "longitude": -122.286634}}, "link": "/v3/places/fd26b970de0648bd470e2915", "location": {"address": "5510 Doyle St", "census_block": "060014251033010", "country": "US", "dma": "San Francisco-Oakland-San Jose", "formatted_address": "5510 Doyle St, Emeryville, CA 94608", "locality": "Emeryville", "postcode": "94608", "region": "CA"}, "name": "Design Events", "related_places": {}}, {"fsq_id": "8a857c59814e4b545c5162a8", "categories": [{"id": 11038, "name": "Event Service", "short_name": "Event Services", "plural_name": "Event Services", "icon": {"prefix": "https://ss3.4sqi.net/img/categories_v2/event/default_", "suffix": ".png"}}], "chains": [], "closed_bucket": "LikelyClosed", "distance": 14896, "geocodes": {"drop_off": {"latitude": 37.837568, "longitude": -122.256624}, "main": {"latitude": 37.83737, "longitude": -122.256725}, "roof": {"latitude": 37.83737, "longitude": -122.256725}}, "link": "/v3/places/8a857c59814e4b545c5162a8", "location": {"address": "423 Cavour St", "census_block": "060014003002010", "country": "US", "dma": "San Francisco-Oakland-San Jose", "formatted_address": "423 Cavour St, Oakland, CA 94618", "locality": "Oakland", "postcode": "94618", "region": "CA"}, "name": "Design Events", "related_places": {}}, {"fsq_id": "ff47335d536848d633f83e59", "categories": [{"id": 11001, "name": "Advertising Agency", "short_name": "Advertising Agency", "plural_name": "Advertising Agencies", "icon": {"prefix": "https://ss3.4sqi.net/img/categories_v2/building/default_", "suffix": ".png"}}], "chains": [], "closed_bucket": "Unsure", "distance": 4751, "geocodes": {"drop_off": {"latitude": 37.73975, "longitude": -122.426309}, "main": {"latitude": 37.739574, "longitude": -122.426298}, "roof": {"latitude": 37.739574, "longitude": -122.426298}}, "link": "/v3/places/ff47335d536848d633f83e59", "location": {"address": "133 Randall St", "census_block": "060750218002002", "country": "US", "dma": "San Francisco-Oakland-San Jose", "formatted_address": "133 Randall St, San Francisco, CA 94131", "locality": "San Francisco", "postcode": "94131", "region": "CA"}, "name": "Roar Design & Events", "related_places": {}}, {"fsq_id": "414e1d80f964a520ed1c1fe3", "categories": [{"id": 10039, "name": "Music Venue", "short_name": "Music Venue", "plural_name": "Music Venues", "icon": {"prefix": "https://ss3.4sqi.net/img/categories_v2/arts_entertainment/musicvenue_", "suffix": ".png"}}, {"id": 11039, "name": "Event Space", "short_name": "Event Space", "plural_name": "Event Spaces", "icon": {"prefix": "https://ss3.4sqi.net/img/categories_v2/building/eventspace_", "suffix": ".png"}}], "chains": [], "closed_bucket": "VeryLikelyOpen", "distance": 246, "geocodes": {"drop_off": {"latitude": 37.782445, "longitude": -122.410164}, "main": {"latitude": 37.782587, "longitude": -122.410277}, "roof": {"latitude": 37.782587, "longitude": -122.410277}}, "link": "/v3/places/414e1d80f964a520ed1c1fe3", "location": {"address": "982 Market St", "census_block": "060750125033000", "country": "US", "cross_street": "at Golden Gate", "dma": "San Francisco-Oakland-San Jose", "formatted_address": "982 Market St (at Golden Gate), San Francisco, CA 94102", "locality": "San Francisco", "postcode": "94102", "region": "CA"}, "name": "The Warfield Theatre - Special Events", "related_places": {"parent": {"fsq_id": "4be9812b947820a14414b6db", "categories": [{"id": 11000, "name": "Business and Professional Services", "short_name": "Business and Professional Services", "plural_name": "Business and Professional Services", "icon": {"prefix": "https://ss3.4sqi.net/img/categories_v2/building/default_", "suffix": ".png"}}], "name": "Warfield Building"}, "children": [{"fsq_id": "4ec8825b49010f98cdd2356c", "categories": [{"id": 10041, "name": "Rock Club", "short_name": "Rock Club", "plural_name": "Rock Clubs", "icon": {"prefix": "https://ss3.4sqi.net/img/categories_v2/arts_entertainment/musicvenue_rockclub_", "suffix": ".png"}}], "name": "Backstage At The Warfield"}, {"fsq_id": "4daa3a191e72c1ab9bf06b05", "categories": [{"id": 17000, "name": "Retail", "short_name": "Retail", "plural_name": "Retail", "icon": {"prefix": "https://ss3.4sqi.net/img/categories_v2/shops/default_", "suffix": ".png"}}], "name": "Merch Stand at the Warfield"}]}, "timezone": "America/Los_Angeles"}, {"fsq_id": "52829ed9498e38bcbc13b222", "categories": [{"id": 11030, "name": "Design Studio", "short_name": "Design", "plural_name": "Design Studios", "icon": {"prefix": "https://ss3.4sqi.net/img/categories_v2/shops/design_", "suffix": ".png"}}], "chains": [], "closed_bucket": "LikelyClosed", "distance": 248, "geocodes": {"main": {"latitude": 37.782543, "longitude": -122.410848}, "roof": {"latitude": 37.782543, "longitude": -122.410848}}, "link": "/v3/places/52829ed9498e38bcbc13b222", "location": {"address": "25 Taylor St", "census_block": "060750125033001", "country": "US", "cross_street": "Golden Gate Avenue", "dma": "San Francisco-Oakland-San Jose", "formatted_address": "25 Taylor St (Golden Gate Avenue), San Francisco, CA 94102", "locality": "San Francisco", "postcode": "94102", "region": "CA"}, "name": "Design Rehab", "related_places": {}, "timezone": "America/Los_Angeles"}, {"fsq_id": "4d1549868312236ac80f51ba", "categories": [{"id": 17056, "name": "Flower Store", "short_name": "Flower Store", "plural_name": "Flower Stores", "icon": {"prefix": "https://ss3.4sqi.net/img/categories_v2/shops/flowershop_", "suffix": ".png"}}], "chains": [], "closed_bucket": "Unsure", "distance": 1250, "geocodes": {"main": {"latitude": 37.788567, "longitude": -122.420092}, "roof": {"latitude": 37.788567, "longitude": -122.420092}}, "link": "/v3/places/4d1549868312236ac80f51ba", "location": {"address": "1288 Polk St", "census_block": "060750120011001", "country": "US", "cross_street": "at Bush St", "dma": "San Francisco-Oakland-San Jose", "formatted_address": "1288 Polk St (at Bush St), San Francisco, CA 94109", "locality": "San Francisco", "postcode": "94109", "region": "CA"}, "name": "Utsuwa Floral Design", "related_places": {}, "timezone": "America/Los_Angeles"}, {"fsq_id": "4cfe7f0fdccef04d300ecb9c", "categories": [{"id": 11039, "name": "Event Space", "short_name": "Event Space", "plural_name": "Event Spaces", "icon": {"prefix": "https://ss3.4sqi.net/img/categories_v2/building/eventspace_", "suffix": ".png"}}, {"id": 10000, "name": "Arts and Entertainment", "short_name": "Arts & Entertainment", "plural_name": "Arts and Entertainment", "icon": {"prefix": "https://ss3.4sqi.net/img/categories_v2/arts_entertainment/default_", "suffix": ".png"}}], "chains": [], "closed_bucket": "VeryLikelyOpen", "distance": 1495, "geocodes": {"main": {"latitude": 37.768186, "longitude": -122.403335}, "roof": {"latitude": 37.768186, "longitude": -122.403335}}, "link": "/v3/places/4cfe7f0fdccef04d300ecb9c", "location": {"address": "101 Henry Adams St", "census_block": "060750607021014", "country": "US", "dma": "San Francisco-Oakland-San Jose", "formatted_address": "101 Henry Adams St, San Francisco, CA 94103", "locality": "San Francisco", "postcode": "94103", "region": "CA"}, "name": "San Francisco Design Center Galleria", "related_places": {"children": [{"fsq_id": "55c4e8df498e92fb548d3e86", "categories": [{"id": 17082, "name": "Furniture and Home Store", "short_name": "Furniture and Home Store", "plural_name": "Furniture and Home Stores", "icon": {"prefix": "https://ss3.4sqi.net/img/categories_v2/shops/furniture_", "suffix": ".png"}}], "name": "Poliform San Francisco"}]}, "timezone": "America/Los_Angeles"}, {"fsq_id": "59dff31226659b77af4ffb7a", "categories": [{"id": 17094, "name": "Luggage Store", "short_name": "Luggage Store", "plural_name": "Luggage Stores", "icon": {"prefix": "https://ss3.4sqi.net/img/categories_v2/travel/default_", "suffix": ".png"}}], "chains": [], "closed_bucket": "VeryLikelyOpen", "distance": 1368, "geocodes": {"drop_off": {"latitude": 37.776617, "longitude": -122.425133}, "main": {"latitude": 37.776423, "longitude": -122.425109}, "roof": {"latitude": 37.776423, "longitude": -122.425109}}, "link": "/v3/places/59dff31226659b77af4ffb7a", "location": {"address": "529 Hayes St", "census_block": "060750162003004", "country": "US", "cross_street": "Octavia st", "dma": "San Francisco-Oakland-San Jose", "formatted_address": "529 Hayes St (Octavia st), San Francisco, CA 94102", "locality": "San Francisco", "postcode": "94102", "region": "CA"}, "name": "Peak Design", "related_places": {}, "timezone": "America/Los_Angeles"}, {"fsq_id": "4cb32834ef1b37047c4c5000", "categories": [{"id": 11124, "name": "Office", "short_name": "Office", "plural_name": "Offices", "icon": {"prefix": "https://ss3.4sqi.net/img/categories_v2/building/default_", "suffix": ".png"}}], "chains": [], "closed_bucket": "LikelyClosed", "distance": 1977, "geocodes": {"main": {"latitude": 37.792778, "longitude": -122.391879}, "roof": {"latitude": 37.792778, "longitude": -122.391879}}, "link": "/v3/places/4cb32834ef1b37047c4c5000", "location": {"address": "221 Main St", "address_extended": "Ste 920", "census_block": "060750615071003", "country": "US", "cross_street": "", "dma": "San Francisco-Oakland-San Jose", "formatted_address": "221 Main St, San Francisco, CA 94105", "locality": "San Francisco", "postcode": "94105", "region": "CA"}, "name": "DMG :: Events", "related_places": {}, "timezone": "America/Los_Angeles"}, {"fsq_id": "bc85c44b8f454379f87cdc47", "categories": [{"id": 11038, "name": "Event Service", "short_name": "Event Services", "plural_name": "Event Services", "icon": {"prefix": "https://ss3.4sqi.net/img/categories_v2/event/default_", "suffix": ".png"}}], "chains": [], "closed_bucket": "LikelyClosed", "distance": 288, "geocodes": {"main": {"latitude": 37.778407, "longitude": -122.412396}, "roof": {"latitude": 37.778407, "longitude": -122.412396}}, "link": "/v3/places/bc85c44b8f454379f87cdc47", "location": {"address": "1160 Mission St", "address_extended": "Unit 1712", "census_block": "060750176041000", "country": "US", "dma": "San Francisco-Oakland-San Jose", "formatted_address": "1160 Mission St, San Francisco, CA 94103", "locality": "San Francisco", "postcode": "94103", "region": "CA"}, "name": "IDK Events", "related_places": {}, "timezone": "America/Los_Angeles"}]