[{"fsq_id": "5c14c5fadff815002c9b4d5b", "categories": [{"id": 10032, "name": "Night Club", "short_name": "Night Club", "plural_name": "Night Clubs", "icon": {"prefix": "https://ss3.4sqi.net/img/categories_v2/nightlife/nightclub_", "suffix": ".png"}}, {"id": 13011, "name": "Gay Bar", "short_name": "Gay Bar", "plural_name": "Gay Bars", "icon": {"prefix": "https://ss3.4sqi.net/img/categories_v2/nightlife/gaybar_", "suffix": ".png"}}], "chains": [], "closed_bucket": "VeryLikelyOpen", "distance": 1666, "geocodes": {"main": {"latitude": 37.765684, "longitude": -122.413437}, "roof": {"latitude": 37.765684, "longitude": -122.413437}}, "link": "/v3/places/5c14c5fadff815002c9b4d5b", "location": {"address": "2700 16th St", "census_block": "060750177002025", "country": "US", "cross_street": "", "dma": "San Francisco-Oakland-San Jose", "formatted_address": "2700 16th St, San Francisco, CA 94103", "locality": "San Francisco", "postcode": "94103", "region": "CA"}, "name": "Jolene's Bar", "related_places": {}, "timezone": "America/Los_Angeles"}, {"fsq_id": "579921ab498e220f33bd59a2", "categories": [{"id": 10032, "name": "Night Club", "short_name": "Night Club", "plural_name": "Night Clubs", "icon": {"prefix": "https://ss3.4sqi.net/img/categories_v2/nightlife/nightclub_", "suffix": ".png"}}, {"id": 13003, "name": "Bar", "short_name": "Bar", "plural_name": "Bars", "icon": {"prefix": "https://ss3.4sqi.net/img/categories_v2/nightlife/pub_", "suffix": ".png"}}], "chains": [], "closed_bucket": "VeryLikelyOpen", "distance": 1479, "geocodes": {"main": {"latitude": 37.768066, "longitude": -122.406625}, "roof": {"latitude": 37.768066, "longitude": -122.406625}}, "link": "/v3/places/579921ab498e220f33bd59a2", "location": {"address": "119 Utah St", "census_block": "060750177001003", "country": "US", "cross_street": "at 15th St", "dma": "San Francisco-Oakland-San Jose", "formatted_address": "119 Utah St (at 15th St), San Francisco, CA 94103", "locality": "San Francisco", "postcode": "94103", "region": "CA"}, "name": "The Great Northern", "related_places": {}, "timezone": "America/Los_Angeles"}, {"fsq_id": "413ba880f964a520e91a1fe3", "categories": [{"id": 10032, "name": "Night Club", "short_name": "Night Club", "plural_name": "Night Clubs", "icon": {"prefix": "https://ss3.4sqi.net/img/categories_v2/nightlife/nightclub_", "suffix": ".png"}}, {"id": 13003, "name": "Bar", "short_name": "Bar", "plural_name": "Bars", "icon": {"prefix": "https://ss3.4sqi.net/img/categories_v2/nightlife/pub_", "suffix": ".png"}}], "chains": [], "closed_bucket": "LikelyOpen", "distance": 568, "geocodes": {"drop_off": {"latitude": 37.775201, "longitude": -122.409819}, "main": {"latitude": 37.775329, "longitude": -122.40992}, "roof": {"latitude": 37.775329, "longitude": -122.40992}}, "link": "/v3/places/413ba880f964a520e91a1fe3", "location": {"address": "1190 Folsom St", "census_block": "060750178041006", "country": "US", "cross_street": "at 8th St", "dma": "San Francisco-Oakland-San Jose", "formatted_address": "1190 Folsom St (at 8th St), San Francisco, CA 94103", "locality": "San Francisco", "postcode": "94103", "region": "CA"}, "name": "Cat Club", "related_places": {"children": []}, "timezone": "America/Los_Angeles"}, {"fsq_id": "43598100f964a520f7281fe3", "categories": [{"id": 13009, "name": "Cocktail Bar", "short_name": "Cocktail", "plural_name": "Cocktail Bars", "icon": {"prefix": "https://ss3.4sqi.net/img/categories_v2/nightlife/cocktails_", "suffix": ".png"}}, {"id": 13016, "name": "Lounge", "short_name": "Lounge", "plural_name": "Lounges", "icon": {"prefix": "https://ss3.4sqi.net/img/categories_v2/nightlife/default_", "suffix": ".png"}}, {"id": 13065, "name": "Restaurant", "short_name": "Restaurant", "plural_name": "Restaurants", "icon": {"prefix": "https://ss3.4sqi.net/img/categories_v2/food/default_", "suffix": ".png"}}], "chains": [], "closed_bucket": "VeryLikelyOpen", "distance": 2484, "geocodes": {"main": {"latitude": 37.774237, "longitude": -122.43745}, "roof": {"latitude": 37.774237, "longitude": -122.43745}}, "link": "/v3/places/43598100f964a520f7281fe3", "location": {"address": "500 Divisadero St", "census_block": "060750164002004", "country": "US", "cross_street": "at Fell St", "dma": "San Francisco-Oakland-San Jose", "formatted_address": "500 Divisadero St (at Fell St), San Francisco, CA 94117", "locality": "San Francisco", "postcode": "94117", "region": "CA"}, "name": "Madrone Art Bar", "related_places": {}, "timezone": "America/Los_Angeles"}, {"fsq_id": "3fd66200f964a52028f11ee3", "categories": [{"id": 10032, "name": "Night Club", "short_name": "Night Club", "plural_name": "Night Clubs", "icon": {"prefix": "https://ss3.4sqi.net/img/categories_v2/nightlife/nightclub_", "suffix": ".png"}}, {"id": 13003, "name": "Bar", "short_name": "Bar", "plural_name": "Bars", "icon": {"prefix": "https://ss3.4sqi.net/img/categories_v2/nightlife/pub_", "suffix": ".png"}}], "chains": [], "closed_bucket": "LikelyOpen", "distance": 136, "geocodes": {"main": {"latitude": 37.781498, "longitude": -122.409567}, "roof": {"latitude": 37.781498, "longitude": -122.409567}}, "link": "/v3/places/3fd66200f964a52028f11ee3", "location": {"address": "60 6th St", "census_block": "060750176043001", "country": "US", "cross_street": "btwn Market & Mission St", "dma": "San Francisco-Oakland-San Jose", "formatted_address": "60 6th St (btwn Market & Mission St), San Francisco, CA 94103", "locality": "San Francisco", "postcode": "94103", "region": "CA"}, "name": "Club Six", "related_places": {}, "timezone": "America/Los_Angeles"}, {"fsq_id": "43bd283af964a520012d1fe3", "categories": [{"id": 18025, "name": "Dance Studio", "short_name": "Dance Studio", "plural_name": "Dance Studios", "icon": {"prefix": "https://ss3.4sqi.net/img/categories_v2/arts_entertainment/performingarts_dancestudio_", "suffix": ".png"}}], "chains": [], "closed_bucket": "LikelyOpen", "distance": 2743, "geocodes": {"drop_off": {"latitude": 37.785138, "longitude": -122.440806}, "main": {"latitude": 37.785346, "longitude": -122.440832}, "roof": {"latitude": 37.785346, "longitude": -122.440832}}, "link": "/v3/places/43bd283af964a520012d1fe3", "location": {"address": "2460 Sutter St", "census_block": "060750153002002", "country": "US", "cross_street": "btw Divisadero & Broderick", "dma": "San Francisco-Oakland-San Jose", "formatted_address": "2460 Sutter St (btw Divisadero & Broderick), San Francisco, CA 94115", "locality": "San Francisco", "postcode": "94115", "region": "CA"}, "name": "9:20 Special", "related_places": {}, "timezone": "America/Los_Angeles"}, {"fsq_id": "4b1ee998f964a5207b2124e3", "categories": [{"id": 10032, "name": "Night Club", "short_name": "Night Club", "plural_name": "Night Clubs", "icon": {"prefix": "https://ss3.4sqi.net/img/categories_v2/nightlife/nightclub_", "suffix": ".png"}}, {"id": 13016, "name": "Lounge", "short_name": "Lounge", "plural_name": "Lounges", "icon": {"prefix": "https://ss3.4sqi.net/img/categories_v2/nightlife/default_", "suffix": ".png"}}, {"id": 13065, "name": "Restaurant", "short_name": "Restaurant", "plural_name": "Restaurants", "icon": {"prefix": "https://ss3.4sqi.net/img/categories_v2/food/default_", "suffix": ".png"}}], "chains": [], "closed_bucket": "LikelyOpen", "distance": 575, "geocodes": {"main": {"latitude": 37.775284, "longitude": -122.409994}}, "link": "/v3/places/4b1ee998f964a5207b2124e3", "location": {"address": "1192 Folsom St", "census_block": "060750178041006", "country": "US", "cross_street": "8th", "dma": "San Francisco-Oakland-San Jose", "formatted_address": "1192 Folsom St (8th), San Francisco, CA 94103", "locality": "San Francisco", "postcode": "94103", "region": "CA"}, "name": "F8 1192 Folsom", "related_places": {}, "timezone": "America/Los_Angeles"}, {"fsq_id": "4b710beaf964a52028382de3", "categories": [{"id": 10037, "name": "Concert Hall", "short_name": "Concert Hall", "plural_name": "Concert Halls", "icon": {"prefix": "https://ss3.4sqi.net/img/categories_v2/arts_entertainment/musicvenue_", "suffix": ".png"}}, {"id": 10039, "name": "Music Venue", "short_name": "Music Venue", "plural_name": "Music Venues", "icon": {"prefix": "https://ss3.4sqi.net/img/categories_v2/arts_entertainment/musicvenue_", "suffix": ".png"}}, {"id": 13065, "name": "Restaurant", "short_name": "Restaurant", "plural_name": "Restaurants", "icon": {"prefix": "https://ss3.4sqi.net/img/categories_v2/food/default_", "suffix": ".png"}}], "chains": [], "closed_bucket": "LikelyOpen", "distance": 12458, "geocodes": {"main": {"latitude": 37.807765, "longitude": -122.27289}, "roof": {"latitude": 37.807765, "longitude": -122.27289}}, "link": "/v3/places/4b710beaf964a52028382de3", "location": {"address": "579 18th St", "census_block": "060014028021001", "country": "US", "cross_street": "at San Pablo St.", "dma": "San Francisco-Oakland-San Jose", "formatted_address": "579 18th St (at San Pablo St.), Oakland, CA 94612", "locality": "Oakland", "postcode": "94612", "region": "CA"}, "name": "The New Parish", "related_places": {}, "timezone": "America/Los_Angeles"}, {"fsq_id": "45206674f964a520b43a1fe3", "categories": [{"id": 10032, "name": "Night Club", "short_name": "Night Club", "plural_name": "Night Clubs", "icon": {"prefix": "https://ss3.4sqi.net/img/categories_v2/nightlife/nightclub_", "suffix": ".png"}}, {"id": 13003, "name": "Bar", "short_name": "Bar", "plural_name": "Bars", "icon": {"prefix": "https://ss3.4sqi.net/img/categories_v2/nightlife/pub_", "suffix": ".png"}}], "chains": [], "closed_bucket": "VeryLikelyOpen", "distance": 4537, "geocodes": {"main": {"latitude": 37.739879, "longitude": -122.404749}, "roof": {"latitude": 37.739879, "longitude": -122.404749}}, "link": "/v3/places/45206674f964a520b43a1fe3", "location": {"address": "550 Barneveld Ave", "census_block": "060759809001039", "country": "US", "cross_street": "", "dma": "San Francisco-Oakland-San Jose", "formatted_address": "550 Barneveld Ave, San Francisco, CA 94124", "locality": "San Francisco", "postcode": "94124", "region": "CA"}, "name": "Sundance Saloon", "related_places": {}, "timezone": "America/Los_Angeles"}, {"fsq_id": "461902e9f964a52055451fe3", "categories": [{"id": 10032, "name": "Night Club", "short_name": "Night Club", "plural_name": "Night Clubs", "icon": {"prefix": "https://ss3.4sqi.net/img/categories_v2/nightlife/nightclub_", "suffix": ".png"}}, {"id": 18025, "name": "Dance Studio", "short_name": "Dance Studio", "plural_name": "Dance Studios", "icon": {"prefix": "https://ss3.4sqi.net/img/categories_v2/arts_entertainment/performingarts_dancestudio_", "suffix": ".png"}}], "chains": [], "closed_bucket": "VeryLikelyOpen", "distance": 3586, "geocodes": {"drop_off": {"latitude": 37.750158, "longitude": -122.396323}, "main": {"latitude": 37.750177, "longitude": -122.39611}, "roof": {"latitude": 37.750177, "longitude": -122.39611}}, "link": "/v3/places/461902e9f964a52055451fe3", "location": {"address": "1275 Connecticut St", "census_block": "060759809001016", "country": "US", "cross_street": "at Cesar Chavez St", "dma": "San Francisco-Oakland-San Jose", "formatted_address": "1275 Connecticut St (at Cesar Chavez St), San Francisco, CA 94107", "locality": "San Francisco", "postcode": "94107", "region": "CA"}, "name": "Danzhaus Aka The Gingerbread House", "related_places": {}, "timezone": "America/Los_Angeles"}, {"fsq_id": "43582f80f964a520da281fe3", "categories": [{"id": 10032, "name": "Night Club", "short_name": "Night Club", "plural_name": "Night Clubs", "icon": {"prefix": "https://ss3.4sqi.net/img/categories_v2/nightlife/nightclub_", "suffix": ".png"}}, {"id": 13010, "name": "Dive Bar", "short_name": "Dive Bar", "plural_name": "Dive Bars", "icon": {"prefix": "https://ss3.4sqi.net/img/categories_v2/nightlife/divebar_", "suffix": ".png"}}, {"id": 13011, "name": "Gay Bar", "short_name": "Gay Bar", "plural_name": "Gay Bars", "icon": {"prefix": "https://ss3.4sqi.net/img/categories_v2/nightlife/gaybar_", "suffix": ".png"}}], "chains": [], "closed_bucket": "LikelyOpen", "distance": 1897, "geocodes": {"drop_off": {"latitude": 37.772255, "longitude": -122.429362}, "main": {"latitude": 37.772469, "longitude": -122.42939}, "roof": {"latitude": 37.772469, "longitude": -122.42939}}, "link": "/v3/places/43582f80f964a520da281fe3", "location": {"address": "424 Haight St", "census_block": "060750168011000", "country": "US", "cross_street": "at Webster", "dma": "San Francisco-Oakland-San Jose", "formatted_address": "424 Haight St (at Webster), San Francisco, CA 94117", "locality": "San Francisco", "postcode": "94117", "region": "CA"}, "name": "Underground SF", "related_places": {"children": []}, "timezone": "America/Los_Angeles"}, {"fsq_id": "51f812d28bbdfc0de9290b1a", "categories": [{"id": 10032, "name": "Night Club", "short_name": "Night Club", "plural_name": "Night Clubs", "icon": {"prefix": "https://ss3.4sqi.net/img/categories_v2/nightlife/nightclub_", "suffix": ".png"}}, {"id": 13009, "name": "Cocktail Bar", "short_name": "Cocktail", "plural_name": "Cocktail Bars", "icon": {"prefix": "https://ss3.4sqi.net/img/categories_v2/nightlife/cocktails_", "suffix": ".png"}}, {"id": 13065, "name": "Restaurant", "short_name": "Restaurant", "plural_name": "Restaurants", "icon": {"prefix": "https://ss3.4sqi.net/img/categories_v2/food/default_", "suffix": ".png"}}], "chains": [], "closed_bucket": "LikelyOpen", "distance": 1051, "geocodes": {"main": {"latitude": 37.7715, "longitude": -122.413852}, "roof": {"latitude": 37.7715, "longitude": -122.413852}}, "link": "/v3/places/51f812d28bbdfc0de9290b1a", "location": {"address": "316 11th St", "census_block": "060750177002011", "country": "US", "cross_street": "btwn Folsom & Harrison", "dma": "San Francisco-Oakland-San Jose", "formatted_address": "316 11th St (btwn Folsom & Harrison), San Francisco, CA 94103", "locality": "San Francisco", "postcode": "94103", "region": "CA"}, "name": "Audio Nightclub", "related_places": {}, "timezone": "America/Los_Angeles"}, {"fsq_id": "4b3119d7f964a5203b0025e3", "categories": [{"id": 10032, "name": "Night Club", "short_name": "Night Club", "plural_name": "Night Clubs", "icon": {"prefix": "https://ss3.4sqi.net/img/categories_v2/nightlife/nightclub_", "suffix": ".png"}}], "chains": [], "closed_bucket": "LikelyOpen", "distance": 1414, "geocodes": {"main": {"latitude": 37.765441, "longitude": -122.386615}, "roof": {"latitude": 37.765441, "longitude": -122.386615}}, "link": "/v3/places/4b3119d7f964a5203b0025e3", "location": {"address": "817 Terry A Francois Blvd", "census_block": "060750226002001", "country": "US", "cross_street": "between Illinois St & Mariposa St", "dma": "San Francisco-Oakland-San Jose", "formatted_address": "817 Terry A Francois Blvd (between Illinois St & Mariposa St), San Francisco, CA 94158", "locality": "San Francisco", "postcode": "94158", "region": "CA"}, "name": "Breakfast of Champions", "related_places": {}, "timezone": "America/Los_Angeles"}, {"fsq_id": "4c302764ed37a593d5926803", "categories": [{"id": 10032, "name": "Night Club", "short_name": "Night Club", "plural_name": "Night Clubs", "icon": {"prefix": "https://ss3.4sqi.net/img/categories_v2/nightlife/nightclub_", "suffix": ".png"}}], "chains": [], "closed_bucket": "VeryLikelyOpen", "distance": 468, "geocodes": {"main": {"latitude": 37.778128, "longitude": -122.405784}, "roof": {"latitude": 37.778128, "longitude": -122.405784}}, "link": "/v3/places/4c302764ed37a593d5926803", "location": {"address": "1015 Folsom St", "census_block": "060750178043000", "country": "US", "cross_street": "Harriet", "dma": "San Francisco-Oakland-San Jose", "formatted_address": "1015 Folsom St (Harriet), San Francisco, CA 94103", "locality": "San Francisco", "postcode": "94103", "region": "CA"}, "name": "Pura Club", "related_places": {}, "timezone": "America/Los_Angeles"}, {"fsq_id": "580908d9d67c079762534ad5", "categories": [{"id": 10032, "name": "Night Club", "short_name": "Night Club", "plural_name": "Night Clubs", "icon": {"prefix": "https://ss3.4sqi.net/img/categories_v2/nightlife/nightclub_", "suffix": ".png"}}, {"id": 13003, "name": "Bar", "short_name": "Bar", "plural_name": "Bars", "icon": {"prefix": "https://ss3.4sqi.net/img/categories_v2/nightlife/pub_", "suffix": ".png"}}, {"id": 13065, "name": "Restaurant", "short_name": "Restaurant", "plural_name": "Restaurants", "icon": {"prefix": "https://ss3.4sqi.net/img/categories_v2/food/default_", "suffix": ".png"}}], "chains": [], "closed_bucket": "VeryLikelyOpen", "distance": 1032, "geocodes": {"drop_off": {"latitude": 37.771667, "longitude": -122.413798}, "main": {"latitude": 37.771424, "longitude": -122.41399}, "roof": {"latitude": 37.771424, "longitude": -122.41399}}, "link": "/v3/places/580908d9d67c079762534ad5", "location": {"address": "314 11th St", "census_block": "060750177002011", "country": "US", "cross_street": "Folsom", "dma": "San Francisco-Oakland-San Jose", "formatted_address": "314 11th St (Folsom), San Francisco, CA 94103", "locality": "San Francisco", "postcode": "94103", "region": "CA"}, "name": "Halcyon", "related_places": {}, "timezone": "America/Los_Angeles"}, {"fsq_id": "3fd66200f964a52029f11ee3", "categories": [{"id": 10032, "name": "Night Club", "short_name": "Night Club", "plural_name": "Night Clubs", "icon": {"prefix": "https://ss3.4sqi.net/img/categories_v2/nightlife/nightclub_", "suffix": ".png"}}, {"id": 13009, "name": "Cocktail Bar", "short_name": "Cocktail", "plural_name": "Cocktail Bars", "icon": {"prefix": "https://ss3.4sqi.net/img/categories_v2/nightlife/cocktails_", "suffix": ".png"}}, {"id": 13064, "name": "Pizzeria", "short_name": "Pizza", "plural_name": "Pizzerias", "icon": {"prefix": "https://ss3.4sqi.net/img/categories_v2/food/pizza_", "suffix": ".png"}}], "chains": [], "closed_bucket": "LikelyOpen", "distance": 1072, "geocodes": {"main": {"latitude": 37.77104, "longitude": -122.412606}, "roof": {"latitude": 37.77104, "longitude": -122.412606}}, "link": "/v3/places/3fd66200f964a52029f11ee3", "location": {"address": "375 11th St", "census_block": "060750178032004", "country": "US", "cross_street": "at Harrison St", "dma": "San Francisco-Oakland-San Jose", "formatted_address": "375 11th St (at Harrison St), San Francisco, CA 94103", "locality": "San Francisco", "postcode": "94103", "region": "CA"}, "name": "DNA Lounge", "related_places": {"children": [{"fsq_id": "4d3a0942ad8860fc1eb11252", "categories": [{"id": 10032, "name": "Night Club", "short_name": "Night Club", "plural_name": "Night Clubs", "icon": {"prefix": "https://ss3.4sqi.net/img/categories_v2/nightlife/nightclub_", "suffix": ".png"}}], "name": "Bootie San Francisco"}]}, "timezone": "America/Los_Angeles"}, {"fsq_id": "4be8e80b88ed2d7f1777cc1d", "categories": [{"id": 10032, "name": "Night Club", "short_name": "Night Club", "plural_name": "Night Clubs", "icon": {"prefix": "https://ss3.4sqi.net/img/categories_v2/nightlife/nightclub_", "suffix": ".png"}}, {"id": 13016, "name": "Lounge", "short_name": "Lounge", "plural_name": "Lounges", "icon": {"prefix": "https://ss3.4sqi.net/img/categories_v2/nightlife/default_", "suffix": ".png"}}], "chains": [], "closed_bucket": "LikelyOpen", "distance": 1071, "geocodes": {"main": {"latitude": 37.771002, "longitude": -122.412675}, "roof": {"latitude": 37.771002, "longitude": -122.412675}}, "link": "/v3/places/4be8e80b88ed2d7f1777cc1d", "location": {"address": "375 11th St", "census_block": "060750178032004", "country": "US", "cross_street": "", "dma": "San Francisco-Oakland-San Jose", "formatted_address": "375 11th St, San Francisco, CA 94103", "locality": "San Francisco", "postcode": "94103", "region": "CA"}, "name": "Death Guild", "related_places": {}, "timezone": "America/Los_Angeles"}, {"fsq_id": "4d3a0942ad8860fc1eb11252", "categories": [{"id": 10032, "name": "Night Club", "short_name": "Night Club", "plural_name": "Night Clubs", "icon": {"prefix": "https://ss3.4sqi.net/img/categories_v2/nightlife/nightclub_", "suffix": ".png"}}], "chains": [], "closed_bucket": "LikelyOpen", "distance": 1077, "geocodes": {"main": {"latitude": 37.770975, "longitude": -122.412602}, "roof": {"latitude": 37.770975, "longitude": -122.412602}}, "link": "/v3/places/4d3a0942ad8860fc1eb11252", "location": {"address": "375 11th St", "census_block": "060750178032004", "country": "US", "cross_street": "at Harrison St", "dma": "San Francisco-Oakland-San Jose", "formatted_address": "375 11th St (at Harrison St), San Francisco, CA 94103", "locality": "San Francisco", "postcode": "94103", "region": "CA"}, "name": "Bootie San Francisco", "related_places": {"parent": {"fsq_id": "3fd66200f964a52029f11ee3", "categories": [{"id": 10032, "name": "Night Club", "short_name": "Night Club", "plural_name": "Night Clubs", "icon": {"prefix": "https://ss3.4sqi.net/img/categories_v2/nightlife/nightclub_", "suffix": ".png"}}, {"id": 13009, "name": "Cocktail Bar", "short_name": "Cocktail", "plural_name": "Cocktail Bars", "icon": {"prefix": "https://ss3.4sqi.net/img/categories_v2/nightlife/cocktails_", "suffix": ".png"}}, {"id": 13064, "name": "Pizzeria", "short_name": "Pizza", "plural_name": "Pizzerias", "icon": {"prefix": "https://ss3.4sqi.net/img/categories_v2/food/pizza_", "suffix": ".png"}}], "name": "DNA Lounge"}}, "timezone": "America/Los_Angeles"}, {"fsq_id": "3fd66200f964a52075ec1ee3", "categories": [{"id": 10032, "name": "Night Club", "short_name": "Night Club", "plural_name": "Night Clubs", "icon": {"prefix": "https://ss3.4sqi.net/img/categories_v2/nightlife/nightclub_", "suffix": ".png"}}], "chains": [], "closed_bucket": "VeryLikelyOpen", "distance": 470, "geocodes": {"main": {"latitude": 37.778128, "longitude": -122.405784}, "roof": {"latitude": 37.778128, "longitude": -122.405784}}, "link": "/v3/places/3fd66200f964a52075ec1ee3", "location": {"address": "1015 Folsom St", "census_block": "060750178043000", "country": "US", "cross_street": "at 6th St", "dma": "San Francisco-Oakland-San Jose", "formatted_address": "1015 Folsom St (at 6th St), San Francisco, CA 94103", "locality": "San Francisco", "postcode": "94103", "region": "CA"}, "name": "1015 Folsom", "related_places": {}, "timezone": "America/Los_Angeles"}, {"fsq_id": "501e0fd7e4b071e49794e5a4", "categories": [{"id": 11038, "name": "Event Service", "short_name": "Event Services", "plural_name": "Event Services", "icon": {"prefix": "https://ss3.4sqi.net/img/categories_v2/event/default_", "suffix": ".png"}}, {"id": 11039, "name": "Event Space", "short_name": "Event Space", "plural_name": "Event Spaces", "icon": {"prefix": "https://ss3.4sqi.net/img/categories_v2/building/eventspace_", "suffix": ".png"}}], "chains": [], "closed_bucket": "VeryLikelyOpen", "distance": 12584, "geocodes": {"main": {"latitude": 37.804201, "longitude": -122.270316}, "roof": {"latitude": 37.804201, "longitude": -122.270316}}, "link": "/v3/places/501e0fd7e4b071e49794e5a4", "location": {"address": "410 14th St", "census_block": "060014029001029", "country": "US", "cross_street": "Broadway", "dma": "San Francisco-Oakland-San Jose", "formatted_address": "410 14th St (Broadway), Oakland, CA 94612", "locality": "Oakland", "postcode": "94612", "region": "CA"}, "name": "Geoffreys Inner Circle", "related_places": {}, "timezone": "America/Los_Angeles"}, {"fsq_id": "4d202052d7b0b1f7ac64129f", "categories": [{"id": 10032, "name": "Night Club", "short_name": "Night Club", "plural_name": "Night Clubs", "icon": {"prefix": "https://ss3.4sqi.net/img/categories_v2/nightlife/nightclub_", "suffix": ".png"}}, {"id": 13003, "name": "Bar", "short_name": "Bar", "plural_name": "Bars", "icon": {"prefix": "https://ss3.4sqi.net/img/categories_v2/nightlife/pub_", "suffix": ".png"}}, {"id": 12097, "name": "Social Club", "short_name": "Social Club", "plural_name": "Social Clubs", "icon": {"prefix": "https://ss3.4sqi.net/img/categories_v2/building/default_", "suffix": ".png"}}], "chains": [], "closed_bucket": "Unsure", "distance": 370, "geocodes": {"main": {"latitude": 37.783421, "longitude": -122.41219}, "roof": {"latitude": 37.783421, "longitude": -122.41219}}, "link": "/v3/places/4d202052d7b0b1f7ac64129f", "location": {"address": "220 Jones St", "census_block": "060750125023000", "country": "US", "cross_street": "at Turk St", "dma": "San Francisco-Oakland-San Jose", "formatted_address": "220 Jones St (at Turk St), San Francisco, CA 94102", "locality": "San Francisco", "postcode": "94102", "region": "CA"}, "name": "Power Exchange", "related_places": {}, "timezone": "America/Los_Angeles"}, {"fsq_id": "56594a55498e9760aa0dcc20", "categories": [{"id": 10032, "name": "Night Club", "short_name": "Night Club", "plural_name": "Night Clubs", "icon": {"prefix": "https://ss3.4sqi.net/img/categories_v2/nightlife/nightclub_", "suffix": ".png"}}, {"id": 13016, "name": "Lounge", "short_name": "Lounge", "plural_name": "Lounges", "icon": {"prefix": "https://ss3.4sqi.net/img/categories_v2/nightlife/default_", "suffix": ".png"}}], "chains": [], "closed_bucket": "LikelyOpen", "distance": 981, "geocodes": {"main": {"latitude": 37.788746, "longitude": -122.406625}, "roof": {"latitude": 37.788746, "longitude": -122.406625}}, "link": "/v3/places/56594a55498e9760aa0dcc20", "location": {"address": "85 Campton Pl", "census_block": "060750117003013", "country": "US", "cross_street": "Stockton", "dma": "San Francisco-Oakland-San Jose", "formatted_address": "85 Campton Pl (Stockton), San Francisco, CA 94108", "locality": "San Francisco", "po_box": "P.O. Box 14243", "postcode": "94108", "region": "CA"}, "name": "Love + Propaganda", "related_places": {}, "timezone": "America/Los_Angeles"}, {"fsq_id": "4f11193ae4b03856f0012625", "categories": [{"id": 10032, "name": "Night Club", "short_name": "Night Club", "plural_name": "Night Clubs", "icon": {"prefix": "https://ss3.4sqi.net/img/categories_v2/nightlife/nightclub_", "suffix": ".png"}}, {"id": 13009, "name": "Cocktail Bar", "short_name": "Cocktail", "plural_name": "Cocktail Bars", "icon": {"prefix": "https://ss3.4sqi.net/img/categories_v2/nightlife/cocktails_", "suffix": ".png"}}], "chains": [], "closed_bucket": "Unsure", "distance": 542, "geocodes": {"main": {"latitude": 37.775676, "longitude": -122.408794}, "roof": {"latitude": 37.775676, "longitude": -122.408794}}, "link": "/v3/places/4f11193ae4b03856f0012625", "location": {"address": "1151 Folsom St", "census_block": "060750178043006", "country": "US", "cross_street": "btw 7th St. and 8th St.", "dma": "San Francisco-Oakland-San Jose", "formatted_address": "1151 Folsom St (btw 7th St. and 8th St.), San Francisco, CA 94103", "locality": "San Francisco", "postcode": "94103", "region": "CA"}, "name": "Raven Bar", "related_places": {}, "timezone": "America/Los_Angeles"}, {"fsq_id": "40870b00f964a52098f21ee3", "categories": [{"id": 10032, "name": "Night Club", "short_name": "Night Club", "plural_name": "Night Clubs", "icon": {"prefix": "https://ss3.4sqi.net/img/categories_v2/nightlife/nightclub_", "suffix": ".png"}}, {"id": 13016, "name": "Lounge", "short_name": "Lounge", "plural_name": "Lounges", "icon": {"prefix": "https://ss3.4sqi.net/img/categories_v2/nightlife/default_", "suffix": ".png"}}], "chains": [], "closed_bucket": "VeryLikelyOpen", "distance": 2365, "geocodes": {"main": {"latitude": 37.760385, "longitude": -122.419072}, "roof": {"latitude": 37.760385, "longitude": -122.419072}}, "link": "/v3/places/40870b00f964a52098f21ee3", "location": {"address": "2299 Mission St", "census_block": "060750208022001", "country": "US", "cross_street": "at 19th St", "dma": "San Francisco-Oakland-San Jose", "formatted_address": "2299 Mission St (at 19th St), San Francisco, CA 94110", "locality": "San Francisco", "postcode": "94110", "region": "CA"}, "name": "Beauty Bar", "related_places": {}, "timezone": "America/Los_Angeles"}, {"fsq_id": "4bbd6406f57ba593bc1aaeb9", "categories": [{"id": 10032, "name": "Night Club", "short_name": "Night Club", "plural_name": "Night Clubs", "icon": {"prefix": "https://ss3.4sqi.net/img/categories_v2/nightlife/nightclub_", "suffix": ".png"}}, {"id": 13009, "name": "Cocktail Bar", "short_name": "Cocktail", "plural_name": "Cocktail Bars", "icon": {"prefix": "https://ss3.4sqi.net/img/categories_v2/nightlife/cocktails_", "suffix": ".png"}}, {"id": 13016, "name": "Lounge", "short_name": "Lounge", "plural_name": "Lounges", "icon": {"prefix": "https://ss3.4sqi.net/img/categories_v2/nightlife/default_", "suffix": ".png"}}], "chains": [], "closed_bucket": "LikelyOpen", "distance": 18440, "geocodes": {"main": {"latitude": 37.794115, "longitude": -122.201196}, "roof": {"latitude": 37.794115, "longitude": -122.201196}}, "link": "/v3/places/4bbd6406f57ba593bc1aaeb9", "location": {"address": "3411 MacArthur Blvd", "census_block": "060014066014011", "country": "US", "cross_street": "at 35th Ave", "dma": "San Francisco-Oakland-San Jose", "formatted_address": "3411 MacArthur Blvd (at 35th Ave), Oakland, CA 94602", "locality": "Oakland", "postcode": "94602", "region": "CA"}, "name": "Lounge 3411", "related_places": {}, "timezone": "America/Los_Angeles"}, {"fsq_id": "50418718e4b072dc95eb36d1", "categories": [{"id": 10032, "name": "Night Club", "short_name": "Night Club", "plural_name": "Night Clubs", "icon": {"prefix": "https://ss3.4sqi.net/img/categories_v2/nightlife/nightclub_", "suffix": ".png"}}, {"id": 13011, "name": "Gay Bar", "short_name": "Gay Bar", "plural_name": "Gay Bars", "icon": {"prefix": "https://ss3.4sqi.net/img/categories_v2/nightlife/gaybar_", "suffix": ".png"}}], "chains": [], "closed_bucket": "VeryLikelyOpen", "distance": 104, "geocodes": {"main": {"latitude": 37.78178, "longitude": -122.409297}, "roof": {"latitude": 37.78178, "longitude": -122.409297}}, "link": "/v3/places/50418718e4b072dc95eb36d1", "location": {"address": "43 6th St", "census_block": "060750176022001", "country": "US", "cross_street": "Between Market and Mission St.", "dma": "San Francisco-Oakland-San Jose", "formatted_address": "43 6th St (Between Market and Mission St.), San Francisco, CA 94103", "locality": "San Francisco", "postcode": "94103", "region": "CA"}, "name": "Omg", "related_places": {}, "timezone": "America/Los_Angeles"}, {"fsq_id": "41b3a100f964a520771e1fe3", "categories": [{"id": 10032, "name": "Night Club", "short_name": "Night Club", "plural_name": "Night Clubs", "icon": {"prefix": "https://ss3.4sqi.net/img/categories_v2/nightlife/nightclub_", "suffix": ".png"}}, {"id": 13011, "name": "Gay Bar", "short_name": "Gay Bar", "plural_name": "Gay Bars", "icon": {"prefix": "https://ss3.4sqi.net/img/categories_v2/nightlife/gaybar_", "suffix": ".png"}}], "chains": [], "closed_bucket": "LikelyOpen", "distance": 4528, "geocodes": {"main": {"latitude": 37.739879, "longitude": -122.404749}, "roof": {"latitude": 37.739879, "longitude": -122.404749}}, "link": "/v3/places/41b3a100f964a520771e1fe3", "location": {"address": "550 Barneveld Ave", "census_block": "060759809001039", "country": "US", "cross_street": "at Industrial St", "dma": "San Francisco-Oakland-San Jose", "formatted_address": "550 Barneveld Ave (at Industrial St), San Francisco, CA 94124", "locality": "San Francisco", "postcode": "94124", "region": "CA"}, "name": "Space 550", "related_places": {}, "timezone": "America/Los_Angeles"}, {"fsq_id": "4fe7da54e4b0899a0ad73e34", "categories": [{"id": 10032, "name": "Night Club", "short_name": "Night Club", "plural_name": "Night Clubs", "icon": {"prefix": "https://ss3.4sqi.net/img/categories_v2/nightlife/nightclub_", "suffix": ".png"}}], "chains": [], "closed_bucket": "VeryLikelyOpen", "distance": 12715, "geocodes": {"drop_off": {"latitude": 37.808234, "longitude": -122.269927}, "main": {"latitude": 37.808197, "longitude": -122.269757}, "roof": {"latitude": 37.808197, "longitude": -122.269757}}, "link": "/v3/places/4fe7da54e4b0899a0ad73e34", "location": {"address": "1912 Telegraph Ave", "census_block": "060014028011017", "country": "US", "cross_street": "", "dma": "San Francisco-Oakland-San Jose", "formatted_address": "1912 Telegraph Ave, Oakland, CA 94612", "locality": "Oakland", "postcode": "94612", "region": "CA"}, "name": "The Den at Fox Theatre", "related_places": {"children": []}, "timezone": "America/Los_Angeles"}, {"fsq_id": "49e98651f964a520fc651fe3", "categories": [{"id": 10032, "name": "Night Club", "short_name": "Night Club", "plural_name": "Night Clubs", "icon": {"prefix": "https://ss3.4sqi.net/img/categories_v2/nightlife/nightclub_", "suffix": ".png"}}, {"id": 13016, "name": "Lounge", "short_name": "Lounge", "plural_name": "Lounges", "icon": {"prefix": "https://ss3.4sqi.net/img/categories_v2/nightlife/default_", "suffix": ".png"}}, {"id": 13065, "name": "Restaurant", "short_name": "Restaurant", "plural_name": "Restaurants", "icon": {"prefix": "https://ss3.4sqi.net/img/categories_v2/food/default_", "suffix": ".png"}}], "chains": [], "closed_bucket": "VeryLikelyOpen", "distance": 1418, "geocodes": {"main": {"latitude": 37.787893, "longitude": -122.397255}, "roof": {"latitude": 37.787893, "longitude": -122.397255}}, "link": "/v3/places/49e98651f964a520fc651fe3", "location": {"address": "540 Howard St", "census_block": "060750615011007", "country": "US", "cross_street": "btwn 1st & 2nd St", "dma": "San Francisco-Oakland-San Jose", "formatted_address": "540 Howard St (btwn 1st & 2nd St), San Francisco, CA 94105", "locality": "San Francisco", "postcode": "94105", "region": "CA"}, "name": "Temple Nightclub", "related_places": {"children": []}, "timezone": "America/Los_Angeles"}, {"fsq_id": "3fd66200f964a520a5ec1ee3", "categories": [{"id": 10032, "name": "Night Club", "short_name": "Night Club", "plural_name": "Night Clubs", "icon": {"prefix": "https://ss3.4sqi.net/img/categories_v2/nightlife/nightclub_", "suffix": ".png"}}, {"id": 13011, "name": "Gay Bar", "short_name": "Gay Bar", "plural_name": "Gay Bars", "icon": {"prefix": "https://ss3.4sqi.net/img/categories_v2/nightlife/gaybar_", "suffix": ".png"}}], "chains": [], "closed_bucket": "LikelyOpen", "distance": 652, "geocodes": {"main": {"latitude": 37.777304, "longitude": -122.403729}, "roof": {"latitude": 37.777304, "longitude": -122.403729}}, "link": "/v3/places/3fd66200f964a520a5ec1ee3", "location": {"address": "401 6th St", "census_block": "060750180002012", "country": "US", "cross_street": "at Harrison St", "dma": "San Francisco-Oakland-San Jose", "formatted_address": "401 6th St (at Harrison St), San Francisco, CA 94103", "locality": "San Francisco", "postcode": "94103", "region": "CA"}, "name": "The Endup", "related_places": {}, "timezone": "America/Los_Angeles"}]