[{"fsq_id": "4a3f0ce4f964a520aca31fe3", "categories": [{"id": 11133, "name": "Pet Service", "short_name": "Pet Service", "plural_name": "Pet Services", "icon": {"prefix": "https://ss3.4sqi.net/img/categories_v2/shops/pet_store_", "suffix": ".png"}}, {"id": 17110, "name": "Pet Supplies Store", "short_name": "Pet Supplies Store", "plural_name": "Pet Supplies Stores", "icon": {"prefix": "https://ss3.4sqi.net/img/categories_v2/shops/pet_store_", "suffix": ".png"}}], "chains": [{"id": "3ae4d470-0ddd-4171-b17d-f2bef5d1fd48", "name": "Pet Food Express"}], "closed_bucket": "VeryLikelyOpen", "distance": 1872, "geocodes": {"main": {"latitude": 37.769316, "longitude": -122.426193}, "roof": {"latitude": 37.769316, "longitude": -122.426193}}, "link": "/v3/places/4a3f0ce4f964a520aca31fe3", "location": {"address": "1975 Market St", "census_block": "060750202021006", "country": "US", "cross_street": "(Between Duboce & Dolores)", "dma": "San Francisco-Oakland-San Jose", "formatted_address": "1975 Market St ((Between Duboce & Dolores)), San Francisco, CA 94103", "locality": "San Francisco", "postcode": "94103", "region": "CA"}, "name": "Pet Food Express", "related_places": {}, "timezone": "America/Los_Angeles"}, {"fsq_id": "4bf0763f6f8aa593ebecc13c", "categories": [{"id": 11134, "name": "Pet Grooming Service", "short_name": "Pet Grooming Service", "plural_name": "Pet Grooming Services", "icon": {"prefix": "https://ss3.4sqi.net/img/categories_v2/parks_outdoors/dogrun_", "suffix": ".png"}}, {"id": 17110, "name": "Pet Supplies Store", "short_name": "Pet Supplies Store", "plural_name": "Pet Supplies Stores", "icon": {"prefix": "https://ss3.4sqi.net/img/categories_v2/shops/pet_store_", "suffix": ".png"}}], "chains": [], "closed_bucket": "Unsure", "distance": 1778, "geocodes": {"main": {"latitude": 37.793688, "longitude": -122.42104}, "roof": {"latitude": 37.793688, "longitude": -122.42104}}, "link": "/v3/places/4bf0763f6f8aa593ebecc13c", "location": {"address": "1840 Polk St", "census_block": "060750110012000", "country": "US", "cross_street": "Washington", "dma": "San Francisco-Oakland-San Jose", "formatted_address": "1840 Polk St (Washington), San Francisco, CA 94109", "locality": "San Francisco", "postcode": "94109", "region": "CA"}, "name": "Wags Pet Wash & Boutique", "related_places": {}, "timezone": "America/Los_Angeles"}, {"fsq_id": "56d0c241cd10d5a1e164e281", "categories": [{"id": 11062, "name": "Barbershop", "short_name": "Barbershop", "plural_name": "Barbershops", "icon": {"prefix": "https://ss3.4sqi.net/img/categories_v2/shops/salon_barber_", "suffix": ".png"}}], "chains": [], "closed_bucket": "VeryLikelyOpen", "distance": 2846, "geocodes": {"drop_off": {"latitude": 37.75573, "longitude": -122.418797}, "main": {"latitude": 37.75575, "longitude": -122.418583}, "roof": {"latitude": 37.75575, "longitude": -122.418583}}, "link": "/v3/places/56d0c241cd10d5a1e164e281", "location": {"address": "2589 Mission St", "census_block": "060750208013001", "country": "US", "cross_street": "", "dma": "San Francisco-Oakland-San Jose", "formatted_address": "2589 Mission St, San Francisco, CA 94110", "locality": "San Francisco", "postcode": "94110", "region": "CA"}, "name": "The Refinery Grooming Club", "related_places": {}, "timezone": "America/Los_Angeles"}, {"fsq_id": "4cfff759202e224be5f8b02a", "categories": [{"id": 11134, "name": "Pet Grooming Service", "short_name": "Pet Grooming Service", "plural_name": "Pet Grooming Services", "icon": {"prefix": "https://ss3.4sqi.net/img/categories_v2/parks_outdoors/dogrun_", "suffix": ".png"}}, {"id": 17110, "name": "Pet Supplies Store", "short_name": "Pet Supplies Store", "plural_name": "Pet Supplies Stores", "icon": {"prefix": "https://ss3.4sqi.net/img/categories_v2/shops/pet_store_", "suffix": ".png"}}], "chains": [{"id": "3ae4d470-0ddd-4171-b17d-f2bef5d1fd48", "name": "Pet Food Express"}], "closed_bucket": "VeryLikelyOpen", "distance": 3254, "geocodes": {"main": {"latitude": 37.787635, "longitude": -122.446343}, "roof": {"latitude": 37.787635, "longitude": -122.446343}}, "link": "/v3/places/4cfff759202e224be5f8b02a", "location": {"address": "3150 California St", "census_block": "060750133003000", "country": "US", "cross_street": "(Just off Presidio Ave.)", "dma": "San Francisco-Oakland-San Jose", "formatted_address": "3150 California St ((Just off Presidio Ave.)), San Francisco, CA 94115", "locality": "San Francisco", "postcode": "94115", "region": "CA"}, "name": "Pet Food Express", "related_places": {}, "timezone": "America/Los_Angeles"}, {"fsq_id": "4a593169f964a520eeb81fe3", "categories": [{"id": 11133, "name": "Pet Service", "short_name": "Pet Service", "plural_name": "Pet Services", "icon": {"prefix": "https://ss3.4sqi.net/img/categories_v2/shops/pet_store_", "suffix": ".png"}}, {"id": 17110, "name": "Pet Supplies Store", "short_name": "Pet Supplies Store", "plural_name": "Pet Supplies Stores", "icon": {"prefix": "https://ss3.4sqi.net/img/categories_v2/shops/pet_store_", "suffix": ".png"}}], "chains": [], "closed_bucket": "VeryLikelyOpen", "distance": 3923, "geocodes": {"main": {"latitude": 37.747604, "longitude": -122.426844}, "roof": {"latitude": 37.747604, "longitude": -122.426844}}, "link": "/v3/places/4a593169f964a520eeb81fe3", "location": {"address": "1451 Church St", "census_block": "060750215001002", "country": "US", "cross_street": "at Cesar Chavez St", "dma": "San Francisco-Oakland-San Jose", "formatted_address": "1451 Church St (at Cesar Chavez St), San Francisco, CA 94131", "locality": "San Francisco", "postcode": "94131", "region": "CA"}, "name": "Noe Valley Pet Company", "related_places": {}, "timezone": "America/Los_Angeles"}, {"fsq_id": "4e9c9492be7bc875ab5545ad", "categories": [{"id": 11134, "name": "Pet Grooming Service", "short_name": "Pet Grooming Service", "plural_name": "Pet Grooming Services", "icon": {"prefix": "https://ss3.4sqi.net/img/categories_v2/parks_outdoors/dogrun_", "suffix": ".png"}}, {"id": 17110, "name": "Pet Supplies Store", "short_name": "Pet Supplies Store", "plural_name": "Pet Supplies Stores", "icon": {"prefix": "https://ss3.4sqi.net/img/categories_v2/shops/pet_store_", "suffix": ".png"}}], "chains": [], "closed_bucket": "LikelyOpen", "distance": 1890, "geocodes": {"main": {"latitude": 37.783786, "longitude": -122.389414}, "roof": {"latitude": 37.783786, "longitude": -122.389414}}, "link": "/v3/places/4e9c9492be7bc875ab5545ad", "location": {"address": "177 Brannan St", "census_block": "060750615081003", "country": "US", "cross_street": "Delancey St", "dma": "San Francisco-Oakland-San Jose", "formatted_address": "177 Brannan St (Delancey St), San Francisco, CA 94107", "locality": "San Francisco", "postcode": "94107", "region": "CA"}, "name": "Bernie's Grooming City Dogs", "related_places": {}, "timezone": "America/Los_Angeles"}, {"fsq_id": "4b7cb728f964a520a1a22fe3", "categories": [{"id": 17110, "name": "Pet Supplies Store", "short_name": "Pet Supplies Store", "plural_name": "Pet Supplies Stores", "icon": {"prefix": "https://ss3.4sqi.net/img/categories_v2/shops/pet_store_", "suffix": ".png"}}], "chains": [], "closed_bucket": "Unsure", "distance": 2360, "geocodes": {"drop_off": {"latitude": 37.801719, "longitude": -122.411143}, "main": {"latitude": 37.801681, "longitude": -122.411332}, "roof": {"latitude": 37.801681, "longitude": -122.411332}}, "link": "/v3/places/4b7cb728f964a520a1a22fe3", "location": {"address": "1841 Powell St", "census_block": "060750104011005", "country": "US", "cross_street": "at Greenwich St", "dma": "San Francisco-Oakland-San Jose", "formatted_address": "1841 Powell St (at Greenwich St), San Francisco, CA 94133", "locality": "San Francisco", "postcode": "94133", "region": "CA"}, "name": "Jeffrey's Natural Pet Foods", "related_places": {}, "timezone": "America/Los_Angeles"}, {"fsq_id": "51523e4ae4b0e54f40cc6958", "categories": [{"id": 11133, "name": "Pet Service", "short_name": "Pet Service", "plural_name": "Pet Services", "icon": {"prefix": "https://ss3.4sqi.net/img/categories_v2/shops/pet_store_", "suffix": ".png"}}, {"id": 17110, "name": "Pet Supplies Store", "short_name": "Pet Supplies Store", "plural_name": "Pet Supplies Stores", "icon": {"prefix": "https://ss3.4sqi.net/img/categories_v2/shops/pet_store_", "suffix": ".png"}}], "chains": [], "closed_bucket": "VeryLikelyOpen", "distance": 2675, "geocodes": {"main": {"latitude": 37.76452, "longitude": -122.433363}, "roof": {"latitude": 37.76452, "longitude": -122.433363}}, "link": "/v3/places/51523e4ae4b0e54f40cc6958", "location": {"address": "284 Noe St", "census_block": "060750169001005", "country": "US", "cross_street": "Market St", "dma": "San Francisco-Oakland-San Jose", "formatted_address": "284 Noe St (Market St), San Francisco, CA 94114", "locality": "San Francisco", "postcode": "94114", "region": "CA"}, "name": "Jeffrey's Natural Pet Foods", "related_places": {}, "timezone": "America/Los_Angeles"}, {"fsq_id": "46629a4cf964a5206c471fe3", "categories": [{"id": 12002, "name": "Animal Shelter", "short_name": "Animal Shelter", "plural_name": "Animal Shelters", "icon": {"prefix": "https://ss3.4sqi.net/img/categories_v2/building/animalshelter_", "suffix": ".png"}}], "chains": [], "closed_bucket": "Unsure", "distance": 1581, "geocodes": {"main": {"latitude": 37.76621, "longitude": -122.412106}, "roof": {"latitude": 37.76621, "longitude": -122.412106}}, "link": "/v3/places/46629a4cf964a5206c471fe3", "location": {"address": "250 Florida St", "census_block": "060750177001013", "country": "US", "cross_street": "16th St.", "dma": "San Francisco-Oakland-San Jose", "formatted_address": "250 Florida St (16th St.), San Francisco, CA 94103", "locality": "San Francisco", "postcode": "94103", "region": "CA"}, "name": "Maddie's Pet Adoption Center", "related_places": {}, "timezone": "America/Los_Angeles"}, {"fsq_id": "4af5d82ef964a520adfd21e3", "categories": [{"id": 15054, "name": "Veterinarian", "short_name": "Veterinarians", "plural_name": "Veterinarians", "icon": {"prefix": "https://ss3.4sqi.net/img/categories_v2/building/medical_veterinarian_", "suffix": ".png"}}], "chains": [], "closed_bucket": "VeryLikelyOpen", "distance": 4252, "geocodes": {"main": {"latitude": 37.780688, "longitude": -122.458544}, "roof": {"latitude": 37.780688, "longitude": -122.458544}}, "link": "/v3/places/4af5d82ef964a520adfd21e3", "location": {"address": "530 Arguello Blvd", "census_block": "060750156003000", "country": "US", "cross_street": "Geary", "dma": "San Francisco-Oakland-San Jose", "formatted_address": "530 Arguello Blvd (Geary), San Francisco, CA 94118", "locality": "San Francisco", "postcode": "94118", "region": "CA"}, "name": "Arguello Pet Hospital", "related_places": {}, "timezone": "America/Los_Angeles"}, {"fsq_id": "50707f40e4b09a19d776ed9d", "categories": [{"id": 11061, "name": "Health and Beauty Service", "short_name": "Health and Beauty Service", "plural_name": "Health and Beauty Services", "icon": {"prefix": "https://ss3.4sqi.net/img/categories_v2/shops/salon_barber_", "suffix": ".png"}}], "chains": [], "closed_bucket": "LikelyClosed", "distance": 823, "geocodes": {"drop_off": {"latitude": 37.786711, "longitude": -122.405845}, "main": {"latitude": 37.786941, "longitude": -122.405874}, "roof": {"latitude": 37.786941, "longitude": -122.405874}}, "link": "/v3/places/50707f40e4b09a19d776ed9d", "location": {"address": "50 Ofarrell St", "census_block": "060750117003008", "country": "US", "cross_street": "Stockton St.", "dma": "San Francisco-Oakland-San Jose", "formatted_address": "50 Ofarrell St (Stockton St.), San Francisco, CA 94108", "locality": "San Francisco", "postcode": "94108", "region": "CA"}, "name": "Men's Grooming Zone", "related_places": {}, "timezone": "America/Los_Angeles"}, {"fsq_id": "600991fa62f533612ca1ed30", "categories": [{"id": 17110, "name": "Pet Supplies Store", "short_name": "Pet Supplies Store", "plural_name": "Pet Supplies Stores", "icon": {"prefix": "https://ss3.4sqi.net/img/categories_v2/shops/pet_store_", "suffix": ".png"}}], "chains": [], "closed_bucket": "LikelyOpen", "distance": 1030, "geocodes": {"main": {"latitude": 37.775455, "longitude": -122.420249}, "roof": {"latitude": 37.775455, "longitude": -122.420249}}, "link": "/v3/places/600991fa62f533612ca1ed30", "location": {"address": "20 Clement St", "census_block": "060750162002007", "country": "US", "cross_street": "", "dma": "San Francisco-Oakland-San Jose", "formatted_address": "20 Clement St, San Francisco, CA 94118", "locality": "San Francisco", "postcode": "94118", "region": "CA"}, "name": "Pet Food Patrol", "related_places": {}, "timezone": "America/Los_Angeles"}, {"fsq_id": "51ad27a3498eb25779f74f0a", "categories": [{"id": 17110, "name": "Pet Supplies Store", "short_name": "Pet Supplies Store", "plural_name": "Pet Supplies Stores", "icon": {"prefix": "https://ss3.4sqi.net/img/categories_v2/shops/pet_store_", "suffix": ".png"}}], "chains": [], "closed_bucket": "Unsure", "distance": 1287, "geocodes": {"drop_off": {"latitude": 37.785915, "longitude": -122.397184}, "main": {"latitude": 37.785801, "longitude": -122.397275}, "roof": {"latitude": 37.785801, "longitude": -122.397275}}, "link": "/v3/places/51ad27a3498eb25779f74f0a", "location": {"address": "246 2nd St", "address_extended": "Ste A", "census_block": "060750615031004", "country": "US", "cross_street": "2nd At Folsom", "dma": "San Francisco-Oakland-San Jose", "formatted_address": "246 2nd St (2nd At Folsom), San Francisco, CA 94105", "locality": "San Francisco", "postcode": "94105", "region": "CA"}, "name": "P.L.A.Y. Pet Lifestyle And You", "related_places": {}, "timezone": "America/Los_Angeles"}, {"fsq_id": "61e834fc31454462efa0acc2", "categories": [{"id": 11133, "name": "Pet Service", "short_name": "Pet Service", "plural_name": "Pet Services", "icon": {"prefix": "https://ss3.4sqi.net/img/categories_v2/shops/pet_store_", "suffix": ".png"}}], "chains": [], "closed_bucket": "VeryLikelyOpen", "distance": 1491, "geocodes": {"drop_off": {"latitude": 37.767076, "longitude": -122.410645}, "main": {"latitude": 37.767062, "longitude": -122.410794}, "roof": {"latitude": 37.767062, "longitude": -122.410794}}, "link": "/v3/places/61e834fc31454462efa0acc2", "location": {"address": "1600 Bryant St", "census_block": "060750177001014", "country": "US", "cross_street": "", "dma": "San Francisco-Oakland-San Jose", "formatted_address": "1600 Bryant St, San Francisco, CA 94141", "locality": "San Francisco", "postcode": "94141", "region": "CA"}, "name": "Happy Pet Care Services", "related_places": {}, "timezone": "America/Los_Angeles"}, {"fsq_id": "4c237f9413c00f474e1c89de", "categories": [{"id": 11134, "name": "Pet Grooming Service", "short_name": "Pet Grooming Service", "plural_name": "Pet Grooming Services", "icon": {"prefix": "https://ss3.4sqi.net/img/categories_v2/parks_outdoors/dogrun_", "suffix": ".png"}}, {"id": 17110, "name": "Pet Supplies Store", "short_name": "Pet Supplies Store", "plural_name": "Pet Supplies Stores", "icon": {"prefix": "https://ss3.4sqi.net/img/categories_v2/shops/pet_store_", "suffix": ".png"}}], "chains": [], "closed_bucket": "VeryLikelyOpen", "distance": 1547, "geocodes": {"main": {"latitude": 37.766882, "longitude": -122.412719}, "roof": {"latitude": 37.766882, "longitude": -122.412719}}, "link": "/v3/places/4c237f9413c00f474e1c89de", "location": {"address": "1200 15th St", "census_block": "060750177001012", "country": "US", "cross_street": "Harrison", "dma": "San Francisco-Oakland-San Jose", "formatted_address": "1200 15th St (Harrison), San Francisco, CA 94103", "locality": "San Francisco", "postcode": "94103", "region": "CA"}, "name": "Bernie's Grooming", "related_places": {}, "timezone": "America/Los_Angeles"}, {"fsq_id": "6084b0ac73ff0d10bbd08f6b", "categories": [{"id": 11061, "name": "Health and Beauty Service", "short_name": "Health and Beauty Service", "plural_name": "Health and Beauty Services", "icon": {"prefix": "https://ss3.4sqi.net/img/categories_v2/shops/salon_barber_", "suffix": ".png"}}], "chains": [], "closed_bucket": "VeryLikelyOpen", "distance": 1786, "geocodes": {"main": {"latitude": 37.795658, "longitude": -122.403807}, "roof": {"latitude": 37.795658, "longitude": -122.403807}}, "link": "/v3/places/6084b0ac73ff0d10bbd08f6b", "location": {"address": "21 Columbus Ave", "address_extended": "Ste 221", "census_block": "060750611012005", "country": "US", "cross_street": "Washington", "dma": "San Francisco-Oakland-San Jose", "formatted_address": "21 Columbus Ave (Washington), San Francisco, CA 94111", "locality": "San Francisco", "postcode": "94111", "region": "CA"}, "name": "Nova Express Personal Grooming Services", "related_places": {}, "timezone": "America/Los_Angeles"}, {"fsq_id": "5b9f08aad552c7002b344b96", "categories": [{"id": 17110, "name": "Pet Supplies Store", "short_name": "Pet Supplies Store", "plural_name": "Pet Supplies Stores", "icon": {"prefix": "https://ss3.4sqi.net/img/categories_v2/shops/pet_store_", "suffix": ".png"}}], "chains": [], "closed_bucket": "VeryLikelyOpen", "distance": 1825, "geocodes": {"main": {"latitude": 37.788702, "longitude": -122.392212}, "roof": {"latitude": 37.788702, "longitude": -122.392212}}, "link": "/v3/places/5b9f08aad552c7002b344b96", "location": {"address": "201 Folsom St", "census_block": "060750615061003", "country": "US", "cross_street": "Beale", "dma": "San Francisco-Oakland-San Jose", "formatted_address": "201 Folsom St (Beale), San Francisco, CA 94105", "locality": "San Francisco", "postcode": "94105", "region": "CA"}, "name": "Woodlands Pet Shop", "related_places": {}, "timezone": "America/Los_Angeles"}, {"fsq_id": "534f406511d25222f2ae971a", "categories": [{"id": 18004, "name": "Baseball Field", "short_name": "Baseball Field", "plural_name": "Baseball Fields", "icon": {"prefix": "https://ss3.4sqi.net/img/categories_v2/parks_outdoors/baseballfield_", "suffix": ".png"}}], "chains": [], "closed_bucket": "Unsure", "distance": 1828, "geocodes": {"main": {"latitude": 37.778864, "longitude": -122.389698}, "roof": {"latitude": 37.778864, "longitude": -122.389698}}, "link": "/v3/places/534f406511d25222f2ae971a", "location": {"address": "24 Willie Mays Plz", "census_block": "060750607013001", "country": "US", "cross_street": "", "dma": "San Francisco-Oakland-San Jose", "formatted_address": "24 Willie Mays Plz, San Francisco, CA 94107", "locality": "San Francisco", "postcode": "94107", "region": "CA"}, "name": "Suite 54 - Big Heart Pet Brands", "related_places": {"parent": {"fsq_id": "4bd2177d046076b055357371", "categories": [{"id": 10051, "name": "Stadium", "short_name": "Stadium", "plural_name": "Stadiums", "icon": {"prefix": "https://ss3.4sqi.net/img/categories_v2/arts_entertainment/stadium_", "suffix": ".png"}}], "name": "Oracle Park"}}, "timezone": "America/Los_Angeles"}, {"fsq_id": "59e01f3f1b0ea520f5184098", "categories": [{"id": 11133, "name": "Pet Service", "short_name": "Pet Service", "plural_name": "Pet Services", "icon": {"prefix": "https://ss3.4sqi.net/img/categories_v2/shops/pet_store_", "suffix": ".png"}}, {"id": 17110, "name": "Pet Supplies Store", "short_name": "Pet Supplies Store", "plural_name": "Pet Supplies Stores", "icon": {"prefix": "https://ss3.4sqi.net/img/categories_v2/shops/pet_store_", "suffix": ".png"}}], "chains": [], "closed_bucket": "LikelyClosed", "distance": 1975, "geocodes": {"main": {"latitude": 37.792087, "longitude": -122.425318}, "roof": {"latitude": 37.792087, "longitude": -122.425318}}, "link": "/v3/places/59e01f3f1b0ea520f5184098", "location": {"address": "1960 Clay St", "census_block": "060750131012002", "country": "US", "cross_street": "", "dma": "San Francisco-Oakland-San Jose", "formatted_address": "1960 Clay St, San Francisco, CA 94109", "locality": "San Francisco", "postcode": "94109", "region": "CA"}, "name": "Bay Area Pet Taxi", "related_places": {}, "timezone": "America/Los_Angeles"}, {"fsq_id": "584af12923188e1e7ac2aba2", "categories": [{"id": 11134, "name": "Pet Grooming Service", "short_name": "Pet Grooming Service", "plural_name": "Pet Grooming Services", "icon": {"prefix": "https://ss3.4sqi.net/img/categories_v2/parks_outdoors/dogrun_", "suffix": ".png"}}], "chains": [], "closed_bucket": "Unsure", "distance": 2111, "geocodes": {"drop_off": {"latitude": 37.799427, "longitude": -122.409706}, "main": {"latitude": 37.799227, "longitude": -122.409681}, "roof": {"latitude": 37.799227, "longitude": -122.409681}}, "link": "/v3/places/584af12923188e1e7ac2aba2", "location": {"address": "641 Green St", "census_block": "060750107022001", "country": "US", "cross_street": "", "dma": "San Francisco-Oakland-San Jose", "formatted_address": "641 Green St, San Francisco, CA 94133", "locality": "San Francisco", "postcode": "94133", "region": "CA"}, "name": "Ashley Kyle's Grooming", "related_places": {}, "timezone": "America/Los_Angeles"}, {"fsq_id": "4d8930bbbc848cfa6388bd2b", "categories": [{"id": 11134, "name": "Pet Grooming Service", "short_name": "Pet Grooming Service", "plural_name": "Pet Grooming Services", "icon": {"prefix": "https://ss3.4sqi.net/img/categories_v2/parks_outdoors/dogrun_", "suffix": ".png"}}, {"id": 17110, "name": "Pet Supplies Store", "short_name": "Pet Supplies Store", "plural_name": "Pet Supplies Stores", "icon": {"prefix": "https://ss3.4sqi.net/img/categories_v2/shops/pet_store_", "suffix": ".png"}}], "chains": [], "closed_bucket": "VeryLikelyOpen", "distance": 2144, "geocodes": {"main": {"latitude": 37.787275, "longitude": -122.433134}, "roof": {"latitude": 37.787275, "longitude": -122.433134}}, "link": "/v3/places/4d8930bbbc848cfa6388bd2b", "location": {"address": "2178 Bush St", "census_block": "060750152022005", "country": "US", "cross_street": "Fillmore", "dma": "San Francisco-Oakland-San Jose", "formatted_address": "2178 Bush St (Fillmore), San Francisco, CA 94115", "locality": "San Francisco", "postcode": "94115", "region": "CA"}, "name": "Russian Hill Dog Grooming Express", "related_places": {}, "timezone": "America/Los_Angeles"}, {"fsq_id": "4aec9dd2f964a5207dc921e3", "categories": [{"id": 11134, "name": "Pet Grooming Service", "short_name": "Pet Grooming Service", "plural_name": "Pet Grooming Services", "icon": {"prefix": "https://ss3.4sqi.net/img/categories_v2/parks_outdoors/dogrun_", "suffix": ".png"}}, {"id": 17110, "name": "Pet Supplies Store", "short_name": "Pet Supplies Store", "plural_name": "Pet Supplies Stores", "icon": {"prefix": "https://ss3.4sqi.net/img/categories_v2/shops/pet_store_", "suffix": ".png"}}], "chains": [], "closed_bucket": "VeryLikelyClosed", "distance": 2158, "geocodes": {"main": {"latitude": 37.798572, "longitude": -122.419106}, "roof": {"latitude": 37.798572, "longitude": -122.419106}}, "link": "/v3/places/4aec9dd2f964a5207dc921e3", "location": {"address": "1929 Hyde St", "census_block": "060750109011006", "country": "US", "cross_street": "", "dma": "San Francisco-Oakland-San Jose", "formatted_address": "1929 Hyde St, San Francisco, CA 94109", "locality": "San Francisco", "postcode": "94109", "region": "CA"}, "name": "Russian Hill Dog Grooming", "related_places": {}, "timezone": "America/Los_Angeles"}, {"fsq_id": "4ba4f872f964a52043ca38e3", "categories": [{"id": 11134, "name": "Pet Grooming Service", "short_name": "Pet Grooming Service", "plural_name": "Pet Grooming Services", "icon": {"prefix": "https://ss3.4sqi.net/img/categories_v2/parks_outdoors/dogrun_", "suffix": ".png"}}, {"id": 17110, "name": "Pet Supplies Store", "short_name": "Pet Supplies Store", "plural_name": "Pet Supplies Stores", "icon": {"prefix": "https://ss3.4sqi.net/img/categories_v2/shops/pet_store_", "suffix": ".png"}}], "chains": [], "closed_bucket": "Unsure", "distance": 2219, "geocodes": {"drop_off": {"latitude": 37.767678, "longitude": -122.429895}, "main": {"latitude": 37.767823, "longitude": -122.429904}, "roof": {"latitude": 37.767823, "longitude": -122.429904}}, "link": "/v3/places/4ba4f872f964a52043ca38e3", "location": {"address": "748 14th St", "census_block": "060750169002001", "country": "US", "cross_street": "Belcher Street", "dma": "San Francisco-Oakland-San Jose", "formatted_address": "748 14th St (Belcher Street), San Francisco, CA 94114", "locality": "San Francisco", "postcode": "94114", "region": "CA"}, "name": "Little Ark Grooming Shop", "related_places": {}, "timezone": "America/Los_Angeles"}, {"fsq_id": "50c11afde4b096cbd775f363", "categories": [{"id": 11134, "name": "Pet Grooming Service", "short_name": "Pet Grooming Service", "plural_name": "Pet Grooming Services", "icon": {"prefix": "https://ss3.4sqi.net/img/categories_v2/parks_outdoors/dogrun_", "suffix": ".png"}}, {"id": 17110, "name": "Pet Supplies Store", "short_name": "Pet Supplies Store", "plural_name": "Pet Supplies Stores", "icon": {"prefix": "https://ss3.4sqi.net/img/categories_v2/shops/pet_store_", "suffix": ".png"}}], "chains": [], "closed_bucket": "VeryLikelyClosed", "distance": 2371, "geocodes": {"drop_off": {"latitude": 37.798471, "longitude": -122.424684}, "main": {"latitude": 37.798602, "longitude": -122.4247}, "roof": {"latitude": 37.798602, "longitude": -122.4247}}, "link": "/v3/places/50c11afde4b096cbd775f363", "location": {"address": "1540 Union St", "address_extended": "# A", "census_block": "060750130011000", "country": "US", "cross_street": "", "dma": "San Francisco-Oakland-San Jose", "formatted_address": "1540 Union St, San Francisco, CA 94123", "locality": "San Francisco", "postcode": "94123", "region": "CA"}, "name": "Pet Grooming Headquarters", "related_places": {}, "timezone": "America/Los_Angeles"}, {"fsq_id": "63d451bb6f931c4dcd9922a9", "categories": [{"id": 11133, "name": "Pet Service", "short_name": "Pet Service", "plural_name": "Pet Services", "icon": {"prefix": "https://ss3.4sqi.net/img/categories_v2/shops/pet_store_", "suffix": ".png"}}], "chains": [], "closed_bucket": "VeryLikelyOpen", "distance": 2968, "geocodes": {"drop_off": {"latitude": 37.800158, "longitude": -122.433264}, "main": {"latitude": 37.799973, "longitude": -122.433241}, "roof": {"latitude": 37.799973, "longitude": -122.433241}}, "link": "/v3/places/63d451bb6f931c4dcd9922a9", "location": {"address": "1937 Lombard St", "census_block": "060750129023004", "country": "US", "cross_street": "", "dma": "San Francisco-Oakland-San Jose", "formatted_address": "1937 Lombard St, San Francisco, CA 94123", "locality": "San Francisco", "postcode": "94123", "region": "CA"}, "name": "Pawz Spa Grooming", "related_places": {}, "timezone": "America/Los_Angeles"}, {"fsq_id": "4dbc757fa86e0e98a1e4ae2e", "categories": [{"id": 11134, "name": "Pet Grooming Service", "short_name": "Pet Grooming Service", "plural_name": "Pet Grooming Services", "icon": {"prefix": "https://ss3.4sqi.net/img/categories_v2/parks_outdoors/dogrun_", "suffix": ".png"}}], "chains": [], "closed_bucket": "VeryLikelyOpen", "distance": 4638, "geocodes": {"main": {"latitude": 37.739333, "longitude": -122.417901}, "roof": {"latitude": 37.739333, "longitude": -122.417901}}, "link": "/v3/places/4dbc757fa86e0e98a1e4ae2e", "location": {"address": "98 Bennington St", "census_block": "060750252004010", "country": "US", "cross_street": "", "dma": "San Francisco-Oakland-San Jose", "formatted_address": "98 Bennington St, San Francisco, CA 94110", "locality": "San Francisco", "postcode": "94110", "region": "CA"}, "name": "Kosita's Pet Grooming", "related_places": {}, "timezone": "America/Los_Angeles"}, {"fsq_id": "5d07d25c1f8ed6002ca30316", "categories": [{"id": 11134, "name": "Pet Grooming Service", "short_name": "Pet Grooming Service", "plural_name": "Pet Grooming Services", "icon": {"prefix": "https://ss3.4sqi.net/img/categories_v2/parks_outdoors/dogrun_", "suffix": ".png"}}], "chains": [], "closed_bucket": "VeryLikelyOpen", "distance": 6299, "geocodes": {"drop_off": {"latitude": 37.729106, "longitude": -122.440434}, "main": {"latitude": 37.728978, "longitude": -122.440501}, "roof": {"latitude": 37.728978, "longitude": -122.440501}}, "link": "/v3/places/5d07d25c1f8ed6002ca30316", "location": {"address": "1800 San Jose Ave", "census_block": "060750255012001", "country": "US", "cross_street": "Santa Rosa Ave", "dma": "San Francisco-Oakland-San Jose", "formatted_address": "1800 San Jose Ave (Santa Rosa Ave), San Francisco, CA 94112", "locality": "San Francisco", "postcode": "94112", "region": "CA"}, "name": "Virginia's Professional Pet Grooming", "related_places": {}, "timezone": "America/Los_Angeles"}, {"fsq_id": "7880a18a321a4895c316199e", "categories": [{"id": 11062, "name": "Barbershop", "short_name": "Barbershop", "plural_name": "Barbershops", "icon": {"prefix": "https://ss3.4sqi.net/img/categories_v2/shops/salon_barber_", "suffix": ".png"}}], "chains": [], "closed_bucket": "LikelyClosed", "distance": 838, "geocodes": {"drop_off": {"latitude": 37.786396, "longitude": -122.415866}, "main": {"latitude": 37.786569, "longitude": -122.415888}, "roof": {"latitude": 37.786569, "longitude": -122.415888}}, "link": "/v3/places/7880a18a321a4895c316199e", "location": {"address": "764 Geary St", "census_block": "060750122043000", "country": "US", "dma": "San Francisco-Oakland-San Jose", "formatted_address": "764 Geary St, San Francisco, CA 94109", "locality": "San Francisco", "postcode": "94109", "region": "CA"}, "name": "Via V'dell Executive Grooming Barber Shop", "related_places": {}}, {"fsq_id": "2a2c751534dc49a2d4f67cdc", "categories": [{"id": 11062, "name": "Barbershop", "short_name": "Barbershop", "plural_name": "Barbershops", "icon": {"prefix": "https://ss3.4sqi.net/img/categories_v2/shops/salon_barber_", "suffix": ".png"}}], "chains": [], "closed_bucket": "LikelyClosed", "distance": 898, "geocodes": {"main": {"latitude": 37.787803, "longitude": -122.40614}, "roof": {"latitude": 37.787803, "longitude": -122.40614}}, "link": "/v3/places/2a2c751534dc49a2d4f67cdc", "location": {"address": "166 Geary St", "address_extended": "Ste 1204", "census_block": "060750117003007", "country": "US", "dma": "San Francisco-Oakland-San Jose", "formatted_address": "166 Geary St, San Francisco, CA 94108", "locality": "San Francisco", "postcode": "94108", "region": "CA"}, "name": "Details Barbershop and Grooming Lounge", "related_places": {}}, {"fsq_id": "4a01366f8b684ad7efb2b36a", "categories": [{"id": 17137, "name": "Video Store", "short_name": "Video Store", "plural_name": "Video Stores", "icon": {"prefix": "https://ss3.4sqi.net/img/categories_v2/shops/video_", "suffix": ".png"}}], "chains": [], "closed_bucket": "VeryLikelyClosed", "distance": 1176, "geocodes": {"drop_off": {"latitude": 37.790428, "longitude": -122.406711}, "main": {"latitude": 37.790632, "longitude": -122.406737}, "roof": {"latitude": 37.790632, "longitude": -122.406737}}, "link": "/v3/places/4a01366f8b684ad7efb2b36a", "location": {"address": "580 Bush St", "census_block": "060750117001003", "country": "US", "dma": "San Francisco-Oakland-San Jose", "formatted_address": "580 Bush St, San Francisco, CA 94108", "locality": "San Francisco", "postcode": "94108", "region": "CA"}, "name": "Tae Hee's Grooming Pet Supply", "related_places": {}}]