[{"fsq_id": "57a0e506498e6c087e114f97", "categories": [{"id": 13035, "name": "Coffee Shop", "short_name": "Coffee Shop", "plural_name": "Coffee Shops", "icon": {"prefix": "https://ss3.4sqi.net/img/categories_v2/food/coffeeshop_", "suffix": ".png"}}], "chains": [{"id": "ab4c54c0-d68a-012e-5619-003048cad9da", "name": "Starbucks"}], "closed_bucket": "VeryLikelyOpen", "distance": 477, "geocodes": {"main": {"latitude": 37.783998, "longitude": -122.407206}, "roof": {"latitude": 37.783998, "longitude": -122.407206}}, "link": "/v3/places/57a0e506498e6c087e114f97", "location": {"address": "865 Market St", "address_extended": "Ste C26A", "census_block": "060750176023000", "country": "US", "cross_street": "5th street", "dma": "San Francisco-Oakland-San Jose", "formatted_address": "865 Market St (5th street), San Francisco, CA 94103", "locality": "San Francisco", "postcode": "94103", "region": "CA"}, "name": "Starbucks", "related_places": {"parent": {"fsq_id": "452b81ddf964a520393b1fe3", "categories": [{"id": 17114, "name": "Shopping Mall", "short_name": "Mall", "plural_name": "Shopping Malls", "icon": {"prefix": "https://ss3.4sqi.net/img/categories_v2/shops/mall_", "suffix": ".png"}}], "name": "Westfield San Francisco Centre"}}, "timezone": "America/Los_Angeles"}, {"fsq_id": "5eeb8d12a41b0b00085eb249", "categories": [{"id": 13035, "name": "Coffee Shop", "short_name": "Coffee Shop", "plural_name": "Coffee Shops", "icon": {"prefix": "https://ss3.4sqi.net/img/categories_v2/food/coffeeshop_", "suffix": ".png"}}], "chains": [{"id": "ab4c54c0-d68a-012e-5619-003048cad9da", "name": "Starbucks"}], "closed_bucket": "VeryLikelyOpen", "distance": 874, "geocodes": {"main": {"latitude": 37.777222, "longitude": -122.41935}, "roof": {"latitude": 37.777222, "longitude": -122.41935}}, "link": "/v3/places/5eeb8d12a41b0b00085eb249", "location": {"address": "150 Van Ness Ave", "census_block": "060750124052003", "country": "US", "cross_street": "Hayes St", "dma": "San Francisco-Oakland-San Jose", "formatted_address": "150 Van Ness Ave (Hayes St), San Francisco, CA 94102", "locality": "San Francisco", "postcode": "94102", "region": "CA"}, "name": "Starbucks", "related_places": {}, "timezone": "America/Los_Angeles"}, {"fsq_id": "5d32450e211fba0008a93f05", "categories": [{"id": 13035, "name": "Coffee Shop", "short_name": "Coffee Shop", "plural_name": "Coffee Shops", "icon": {"prefix": "https://ss3.4sqi.net/img/categories_v2/food/coffeeshop_", "suffix": ".png"}}], "chains": [{"id": "ab4c54c0-d68a-012e-5619-003048cad9da", "name": "Starbucks"}], "closed_bucket": "VeryLikelyOpen", "distance": 1205, "geocodes": {"main": {"latitude": 37.785916, "longitude": -122.421011}, "roof": {"latitude": 37.785916, "longitude": -122.421011}}, "link": "/v3/places/5d32450e211fba0008a93f05", "location": {"address": "1100 Van Ness Ave", "census_block": "060750122022002", "country": "US", "cross_street": "", "dma": "San Francisco-Oakland-San Jose", "formatted_address": "1100 Van Ness Ave, San Francisco, CA 94109", "locality": "San Francisco", "postcode": "94109", "region": "CA"}, "name": "Starbucks", "related_places": {"parent": {"fsq_id": "5ab2c6598b98fd7a52d9883e", "categories": [{"id": 15014, "name": "Hospital", "short_name": "Hospital", "plural_name": "Hospitals", "icon": {"prefix": "https://ss3.4sqi.net/img/categories_v2/building/medical_", "suffix": ".png"}}], "name": "CPMC Imaging, Van Ness Campus"}}, "timezone": "America/Los_Angeles"}, {"fsq_id": "5ce5da80e65d0c002c9ce011", "categories": [{"id": 13035, "name": "Coffee Shop", "short_name": "Coffee Shop", "plural_name": "Coffee Shops", "icon": {"prefix": "https://ss3.4sqi.net/img/categories_v2/food/coffeeshop_", "suffix": ".png"}}], "chains": [{"id": "ab4c54c0-d68a-012e-5619-003048cad9da", "name": "Starbucks"}], "closed_bucket": "VeryLikelyOpen", "distance": 1703, "geocodes": {"main": {"latitude": 37.788398, "longitude": -122.393628}, "roof": {"latitude": 37.788398, "longitude": -122.393628}}, "link": "/v3/places/5ce5da80e65d0c002c9ce011", "location": {"address": "299 Fremont St", "census_block": "060750615071014", "country": "US", "cross_street": "Folsom St", "dma": "San Francisco-Oakland-San Jose", "formatted_address": "299 Fremont St (Folsom St), San Francisco, CA 94105", "locality": "San Francisco", "postcode": "94105", "region": "CA"}, "name": "Starbucks", "related_places": {"parent": {"fsq_id": "5792303d498e24d6d0730c6a", "categories": [{"id": 11148, "name": "Property Management Office", "short_name": "Property Management Office", "plural_name": "Property Management Offices", "icon": {"prefix": "https://ss3.4sqi.net/img/categories_v2/building/default_", "suffix": ".png"}}, {"id": 12094, "name": "Residential Building", "short_name": "Residence", "plural_name": "Residential Buildings", "icon": {"prefix": "https://ss3.4sqi.net/img/categories_v2/building/home_", "suffix": ".png"}}], "name": "Solaire"}}, "timezone": "America/Los_Angeles"}, {"fsq_id": "49ceab7df964a520705a1fe3", "categories": [{"id": 13035, "name": "Coffee Shop", "short_name": "Coffee Shop", "plural_name": "Coffee Shops", "icon": {"prefix": "https://ss3.4sqi.net/img/categories_v2/food/coffeeshop_", "suffix": ".png"}}], "chains": [{"id": "ab4c54c0-d68a-012e-5619-003048cad9da", "name": "Starbucks"}], "closed_bucket": "VeryLikelyOpen", "distance": 982, "geocodes": {"main": {"latitude": 37.789098, "longitude": -122.408438}, "roof": {"latitude": 37.789098, "longitude": -122.408438}}, "link": "/v3/places/49ceab7df964a520705a1fe3", "location": {"address": "462 Powell St", "census_block": "060750117003002", "country": "US", "cross_street": "at Sutter St", "dma": "San Francisco-Oakland-San Jose", "formatted_address": "462 Powell St (at Sutter St), San Francisco, CA 94102", "locality": "San Francisco", "postcode": "94102", "region": "CA"}, "name": "Starbucks", "related_places": {}, "timezone": "America/Los_Angeles"}, {"fsq_id": "5850768b5d6ec67d737094c4", "categories": [{"id": 13035, "name": "Coffee Shop", "short_name": "Coffee Shop", "plural_name": "Coffee Shops", "icon": {"prefix": "https://ss3.4sqi.net/img/categories_v2/food/coffeeshop_", "suffix": ".png"}}], "chains": [{"id": "ab4c54c0-d68a-012e-5619-003048cad9da", "name": "Starbucks"}], "closed_bucket": "VeryLikelyOpen", "distance": 875, "geocodes": {"main": {"latitude": 37.786805, "longitude": -122.407228}, "roof": {"latitude": 37.786805, "longitude": -122.407228}}, "link": "/v3/places/5850768b5d6ec67d737094c4", "location": {"address": "170 Ofarrell St", "census_block": "060750117003012", "country": "US", "cross_street": "", "dma": "San Francisco-Oakland-San Jose", "formatted_address": "170 Ofarrell St, San Francisco, CA 94102", "locality": "San Francisco", "postcode": "94102", "region": "CA"}, "name": "Starbucks", "related_places": {"parent": {"fsq_id": "43f8404cf964a520c22f1fe3", "categories": [{"id": 17033, "name": "Department Store", "short_name": "Department Store", "plural_name": "Department Stores", "icon": {"prefix": "https://ss3.4sqi.net/img/categories_v2/shops/departmentstore_", "suffix": ".png"}}], "name": "Macy's - San Francisco"}}, "timezone": "America/Los_Angeles"}, {"fsq_id": "6167c8968b400716f1d65e0b", "categories": [{"id": 13035, "name": "Coffee Shop", "short_name": "Coffee Shop", "plural_name": "Coffee Shops", "icon": {"prefix": "https://ss3.4sqi.net/img/categories_v2/food/coffeeshop_", "suffix": ".png"}}], "chains": [{"id": "ab4c54c0-d68a-012e-5619-003048cad9da", "name": "Starbucks"}], "closed_bucket": "VeryLikelyOpen", "distance": 1909, "geocodes": {"main": {"latitude": 37.793812, "longitude": -122.396743}, "roof": {"latitude": 37.793812, "longitude": -122.396743}}, "link": "/v3/places/6167c8968b400716f1d65e0b", "location": {"address": "7 Drumm St", "census_block": "060750117002000", "country": "US", "cross_street": "California", "dma": "San Francisco-Oakland-San Jose", "formatted_address": "7 Drumm St (California), San Francisco, CA 94111", "locality": "San Francisco", "postcode": "94111", "region": "CA"}, "name": "Starbucks", "related_places": {}, "timezone": "America/Los_Angeles"}, {"fsq_id": "43bc02c3f964a520f42c1fe3", "categories": [{"id": 13035, "name": "Coffee Shop", "short_name": "Coffee Shop", "plural_name": "Coffee Shops", "icon": {"prefix": "https://ss3.4sqi.net/img/categories_v2/food/coffeeshop_", "suffix": ".png"}}], "chains": [{"id": "ab4c54c0-d68a-012e-5619-003048cad9da", "name": "Starbucks"}], "closed_bucket": "VeryLikelyOpen", "distance": 755, "geocodes": {"main": {"latitude": 37.786145, "longitude": -122.405612}, "roof": {"latitude": 37.786145, "longitude": -122.405612}}, "link": "/v3/places/43bc02c3f964a520f42c1fe3", "location": {"address": "780 Market St", "census_block": "060750117003010", "country": "US", "cross_street": "at 4th St", "dma": "San Francisco-Oakland-San Jose", "formatted_address": "780 Market St (at 4th St), San Francisco, CA 94102", "locality": "San Francisco", "postcode": "94102", "region": "CA"}, "name": "Starbucks", "related_places": {"parent": {"fsq_id": "4e77bbf422714e6e5ea43ec8", "categories": [{"id": 11151, "name": "Real Estate Development and Title Company", "short_name": "Real Estate Development and Title Company", "plural_name": "Real Estate Development and Title Companies", "icon": {"prefix": "https://ss3.4sqi.net/img/categories_v2/building/default_", "suffix": ".png"}}], "name": "Phelan Building"}}, "timezone": "America/Los_Angeles"}, {"fsq_id": "4a6a2733f964a520b9cc1fe3", "categories": [{"id": 13035, "name": "Coffee Shop", "short_name": "Coffee Shop", "plural_name": "Coffee Shops", "icon": {"prefix": "https://ss3.4sqi.net/img/categories_v2/food/coffeeshop_", "suffix": ".png"}}], "chains": [{"id": "ab4c54c0-d68a-012e-5619-003048cad9da", "name": "Starbucks"}], "closed_bucket": "VeryLikelyOpen", "distance": 1039, "geocodes": {"main": {"latitude": 37.789293, "longitude": -122.406729}, "roof": {"latitude": 37.789293, "longitude": -122.406729}}, "link": "/v3/places/4a6a2733f964a520b9cc1fe3", "location": {"address": "390 Stockton St", "census_block": "060750117003001", "country": "US", "cross_street": "at Sutter St", "dma": "San Francisco-Oakland-San Jose", "formatted_address": "390 Stockton St (at Sutter St), San Francisco, CA 94108", "locality": "San Francisco", "postcode": "94108", "region": "CA"}, "name": "Starbucks", "related_places": {}, "timezone": "America/Los_Angeles"}, {"fsq_id": "4aca4f0bf964a5205ac120e3", "categories": [{"id": 13035, "name": "Coffee Shop", "short_name": "Coffee Shop", "plural_name": "Coffee Shops", "icon": {"prefix": "https://ss3.4sqi.net/img/categories_v2/food/coffeeshop_", "suffix": ".png"}}], "chains": [{"id": "ab4c54c0-d68a-012e-5619-003048cad9da", "name": "Starbucks"}], "closed_bucket": "VeryLikelyOpen", "distance": 2051, "geocodes": {"main": {"latitude": 37.767121, "longitude": -122.393738}, "roof": {"latitude": 37.767121, "longitude": -122.393738}}, "link": "/v3/places/4aca4f0bf964a5205ac120e3", "location": {"address": "1700 Owens St", "census_block": "060750607013015", "country": "US", "dma": "San Francisco-Oakland-San Jose", "formatted_address": "1700 Owens St, San Francisco, CA 94158", "locality": "San Francisco", "postcode": "94158", "region": "CA"}, "name": "Starbucks", "related_places": {}, "timezone": "America/Los_Angeles"}, {"fsq_id": "5ccbe7c766fc65002cf4bcd3", "categories": [{"id": 13035, "name": "Coffee Shop", "short_name": "Coffee Shop", "plural_name": "Coffee Shops", "icon": {"prefix": "https://ss3.4sqi.net/img/categories_v2/food/coffeeshop_", "suffix": ".png"}}], "chains": [{"id": "ab4c54c0-d68a-012e-5619-003048cad9da", "name": "Starbucks"}], "closed_bucket": "VeryLikelyOpen", "distance": 1510, "geocodes": {"main": {"latitude": 37.766862, "longitude": -122.409564}, "roof": {"latitude": 37.766862, "longitude": -122.409564}}, "link": "/v3/places/5ccbe7c766fc65002cf4bcd3", "location": {"address": "2300 16th St", "census_block": "060750177001015", "country": "US", "cross_street": "Between Bryant St & Potrero Ave", "dma": "San Francisco-Oakland-San Jose", "formatted_address": "2300 16th St (Between Bryant St & Potrero Ave), San Francisco, CA 94103", "locality": "San Francisco", "postcode": "94103", "region": "CA"}, "name": "Starbucks", "related_places": {"parent": {"fsq_id": "49dcfdb3f964a520dd5f1fe3", "categories": [{"id": 17069, "name": "Grocery Store", "short_name": "Grocery Store", "plural_name": "Grocery Stores", "icon": {"prefix": "https://ss3.4sqi.net/img/categories_v2/shops/food_grocery_", "suffix": ".png"}}], "name": "Safeway"}}, "timezone": "America/Los_Angeles"}, {"fsq_id": "49d0da91f964a520395b1fe3", "categories": [{"id": 13035, "name": "Coffee Shop", "short_name": "Coffee Shop", "plural_name": "Coffee Shops", "icon": {"prefix": "https://ss3.4sqi.net/img/categories_v2/food/coffeeshop_", "suffix": ".png"}}], "chains": [{"id": "ab4c54c0-d68a-012e-5619-003048cad9da", "name": "Starbucks"}], "closed_bucket": "VeryLikelyOpen", "distance": 1713, "geocodes": {"main": {"latitude": 37.794601, "longitude": -122.402669}, "roof": {"latitude": 37.794601, "longitude": -122.402669}}, "link": "/v3/places/49d0da91f964a520395b1fe3", "location": {"address": "565 Clay St", "census_block": "060750611012018", "country": "US", "cross_street": "at Montgomery St", "dma": "San Francisco-Oakland-San Jose", "formatted_address": "565 Clay St (at Montgomery St), San Francisco, CA 94111", "locality": "San Francisco", "postcode": "94111", "region": "CA"}, "name": "Starbucks", "related_places": {}, "timezone": "America/Los_Angeles"}, {"fsq_id": "52869068498e3289da674807", "categories": [{"id": 13035, "name": "Coffee Shop", "short_name": "Coffee Shop", "plural_name": "Coffee Shops", "icon": {"prefix": "https://ss3.4sqi.net/img/categories_v2/food/coffeeshop_", "suffix": ".png"}}], "chains": [{"id": "ab4c54c0-d68a-012e-5619-003048cad9da", "name": "Starbucks"}], "closed_bucket": "VeryLikelyOpen", "distance": 744, "geocodes": {"main": {"latitude": 37.787194, "longitude": -122.410692}, "roof": {"latitude": 37.787194, "longitude": -122.410692}}, "link": "/v3/places/52869068498e3289da674807", "location": {"address": "442 Geary St", "census_block": "060750123023001", "country": "US", "dma": "San Francisco-Oakland-San Jose", "formatted_address": "442 Geary St, San Francisco, CA 94102", "locality": "San Francisco", "postcode": "94102", "region": "CA"}, "name": "Starbucks", "related_places": {}, "timezone": "America/Los_Angeles"}, {"fsq_id": "5b732118a4ba7c002cc92e13", "categories": [{"id": 13035, "name": "Coffee Shop", "short_name": "Coffee Shop", "plural_name": "Coffee Shops", "icon": {"prefix": "https://ss3.4sqi.net/img/categories_v2/food/coffeeshop_", "suffix": ".png"}}], "chains": [{"id": "ab4c54c0-d68a-012e-5619-003048cad9da", "name": "Starbucks"}], "closed_bucket": "VeryLikelyOpen", "distance": 3125, "geocodes": {"main": {"latitude": 37.808488, "longitude": -122.412881}, "roof": {"latitude": 37.808488, "longitude": -122.412881}}, "link": "/v3/places/5b732118a4ba7c002cc92e13", "location": {"address": "49 Jefferson St", "address_extended": "# P", "census_block": "060750101011012", "country": "US", "cross_street": "Powell St", "dma": "San Francisco-Oakland-San Jose", "formatted_address": "49 Jefferson St (Powell St), San Francisco, CA 94133", "locality": "San Francisco", "postcode": "94133", "region": "CA"}, "name": "Starbucks", "related_places": {}, "timezone": "America/Los_Angeles"}, {"fsq_id": "562f99e5498eef997327d994", "categories": [{"id": 13035, "name": "Coffee Shop", "short_name": "Coffee Shop", "plural_name": "Coffee Shops", "icon": {"prefix": "https://ss3.4sqi.net/img/categories_v2/food/coffeeshop_", "suffix": ".png"}}], "chains": [{"id": "ab4c54c0-d68a-012e-5619-003048cad9da", "name": "Starbucks"}], "closed_bucket": "VeryLikelyOpen", "distance": 2108, "geocodes": {"main": {"latitude": 37.771253, "longitude": -122.38925}, "roof": {"latitude": 37.771253, "longitude": -122.38925}}, "link": "/v3/places/562f99e5498eef997327d994", "location": {"address": "1375 3rd St", "census_block": "060750607013010", "country": "US", "cross_street": "Mission Bay Blvd North", "dma": "San Francisco-Oakland-San Jose", "formatted_address": "1375 3rd St (Mission Bay Blvd North), San Francisco, CA 94158", "locality": "San Francisco", "postcode": "94158", "region": "CA"}, "name": "Starbucks", "related_places": {}, "timezone": "America/Los_Angeles"}, {"fsq_id": "49bee717f964a520f3541fe3", "categories": [{"id": 13035, "name": "Coffee Shop", "short_name": "Coffee Shop", "plural_name": "Coffee Shops", "icon": {"prefix": "https://ss3.4sqi.net/img/categories_v2/food/coffeeshop_", "suffix": ".png"}}], "chains": [{"id": "ab4c54c0-d68a-012e-5619-003048cad9da", "name": "Starbucks"}], "closed_bucket": "VeryLikelyOpen", "distance": 715, "geocodes": {"main": {"latitude": 37.777088, "longitude": -122.417264}, "roof": {"latitude": 37.777088, "longitude": -122.417264}}, "link": "/v3/places/49bee717f964a520f3541fe3", "location": {"address": "1390 Market St", "address_extended": "Ste 107", "census_block": "060750124053010", "country": "US", "cross_street": "at Fox Plz", "dma": "San Francisco-Oakland-San Jose", "formatted_address": "1390 Market St (at Fox Plz), San Francisco, CA 94102", "locality": "San Francisco", "postcode": "94102", "region": "CA"}, "name": "Starbucks", "related_places": {"parent": {"fsq_id": "49caafa1f964a520d4581fe3", "categories": [{"id": 16041, "name": "Plaza", "short_name": "Plaza", "plural_name": "Plazas", "icon": {"prefix": "https://ss3.4sqi.net/img/categories_v2/parks_outdoors/plaza_", "suffix": ".png"}}], "name": "Fox Plaza"}}, "timezone": "America/Los_Angeles"}, {"fsq_id": "431e2d80f964a5207c271fe3", "categories": [{"id": 13035, "name": "Coffee Shop", "short_name": "Coffee Shop", "plural_name": "Coffee Shops", "icon": {"prefix": "https://ss3.4sqi.net/img/categories_v2/food/coffeeshop_", "suffix": ".png"}}], "chains": [{"id": "ab4c54c0-d68a-012e-5619-003048cad9da", "name": "Starbucks"}], "closed_bucket": "VeryLikelyOpen", "distance": 699, "geocodes": {"main": {"latitude": 37.784199, "longitude": -122.404135}, "roof": {"latitude": 37.784199, "longitude": -122.404135}}, "link": "/v3/places/431e2d80f964a5207c271fe3", "location": {"address": "120 4th St", "census_block": "060750176023002", "country": "US", "cross_street": "at Mission St", "dma": "San Francisco-Oakland-San Jose", "formatted_address": "120 4th St (at Mission St), San Francisco, CA 94103", "locality": "San Francisco", "postcode": "94103", "region": "CA"}, "name": "Starbucks", "related_places": {"parent": {"fsq_id": "49f7d1c9f964a520e26c1fe3", "categories": [{"id": 19020, "name": "Parking", "short_name": "Parking", "plural_name": "Parking", "icon": {"prefix": "https://ss3.4sqi.net/img/categories_v2/building/parking_", "suffix": ".png"}}], "name": "Fifth & Mission Yerba Buena Garage"}}, "timezone": "America/Los_Angeles"}, {"fsq_id": "4b1bf3aff964a5208cff23e3", "categories": [{"id": 13035, "name": "Coffee Shop", "short_name": "Coffee Shop", "plural_name": "Coffee Shops", "icon": {"prefix": "https://ss3.4sqi.net/img/categories_v2/food/coffeeshop_", "suffix": ".png"}}], "chains": [{"id": "ab4c54c0-d68a-012e-5619-003048cad9da", "name": "Starbucks"}], "closed_bucket": "VeryLikelyOpen", "distance": 1180, "geocodes": {"main": {"latitude": 37.790448, "longitude": -122.405722}, "roof": {"latitude": 37.790448, "longitude": -122.405722}}, "link": "/v3/places/4b1bf3aff964a5208cff23e3", "location": {"address": "359 Grant Ave", "census_block": "060750117004007", "country": "US", "cross_street": "", "dma": "San Francisco-Oakland-San Jose", "formatted_address": "359 Grant Ave, San Francisco, CA 94108", "locality": "San Francisco", "postcode": "94108", "region": "CA"}, "name": "Starbucks", "related_places": {}, "timezone": "America/Los_Angeles"}, {"fsq_id": "4addf20ff964a520986621e3", "categories": [{"id": 13035, "name": "Coffee Shop", "short_name": "Coffee Shop", "plural_name": "Coffee Shops", "icon": {"prefix": "https://ss3.4sqi.net/img/categories_v2/food/coffeeshop_", "suffix": ".png"}}], "chains": [{"id": "ab4c54c0-d68a-012e-5619-003048cad9da", "name": "Starbucks"}], "closed_bucket": "VeryLikelyOpen", "distance": 1252, "geocodes": {"main": {"latitude": 37.789534, "longitude": -122.401869}, "roof": {"latitude": 37.789534, "longitude": -122.401869}}, "link": "/v3/places/4addf20ff964a520986621e3", "location": {"address": "44 Montgomery St", "address_extended": "Ste 120", "census_block": "060750117004010", "country": "US", "cross_street": "btwn Sutter & Market St", "dma": "San Francisco-Oakland-San Jose", "formatted_address": "44 Montgomery St (btwn Sutter & Market St), San Francisco, CA 94104", "locality": "San Francisco", "postcode": "94104", "region": "CA"}, "name": "Starbucks", "related_places": {"parent": {"fsq_id": "4a8324fbf964a52031fa1fe3", "categories": [{"id": 11148, "name": "Property Management Office", "short_name": "Property Management Office", "plural_name": "Property Management Offices", "icon": {"prefix": "https://ss3.4sqi.net/img/categories_v2/building/default_", "suffix": ".png"}}], "name": "44 Montgomery"}}, "timezone": "America/Los_Angeles"}, {"fsq_id": "509a91f3e4b09409673fe51e", "categories": [{"id": 13035, "name": "Coffee Shop", "short_name": "Coffee Shop", "plural_name": "Coffee Shops", "icon": {"prefix": "https://ss3.4sqi.net/img/categories_v2/food/coffeeshop_", "suffix": ".png"}}], "chains": [{"id": "ab4c54c0-d68a-012e-5619-003048cad9da", "name": "Starbucks"}], "closed_bucket": "VeryLikelyOpen", "distance": 1502, "geocodes": {"main": {"latitude": 37.790246, "longitude": -122.422055}, "roof": {"latitude": 37.790246, "longitude": -122.422055}}, "link": "/v3/places/509a91f3e4b09409673fe51e", "location": {"address": "1560 Van Ness Ave", "census_block": "060750111021003", "country": "US", "cross_street": "at California St", "dma": "San Francisco-Oakland-San Jose", "formatted_address": "1560 Van Ness Ave (at California St), San Francisco, CA 94109", "locality": "San Francisco", "postcode": "94109", "region": "CA"}, "name": "Starbucks", "related_places": {"parent": {"fsq_id": "4b6b5ae9f964a52012032ce3", "categories": [{"id": 11045, "name": "Bank", "short_name": "Bank", "plural_name": "Banks", "icon": {"prefix": "https://ss3.4sqi.net/img/categories_v2/shops/financial_", "suffix": ".png"}}], "name": "Wells Fargo Bank"}}, "timezone": "America/Los_Angeles"}, {"fsq_id": "57f948c0498e0e907ae629f2", "categories": [{"id": 13035, "name": "Coffee Shop", "short_name": "Coffee Shop", "plural_name": "Coffee Shops", "icon": {"prefix": "https://ss3.4sqi.net/img/categories_v2/food/coffeeshop_", "suffix": ".png"}}], "chains": [{"id": "ab4c54c0-d68a-012e-5619-003048cad9da", "name": "Starbucks"}], "closed_bucket": "VeryLikelyOpen", "distance": 2331, "geocodes": {"main": {"latitude": 37.788569, "longitude": -122.434572}, "roof": {"latitude": 37.788569, "longitude": -122.434572}}, "link": "/v3/places/57f948c0498e0e907ae629f2", "location": {"address": "2435 California St", "census_block": "060750152022002", "country": "US", "cross_street": "", "dma": "San Francisco-Oakland-San Jose", "formatted_address": "2435 California St, San Francisco, CA 94115", "locality": "San Francisco", "postcode": "94115", "region": "CA"}, "name": "Starbucks", "related_places": {"parent": {"fsq_id": "49e1bb11f964a520e6611fe3", "categories": [{"id": 17069, "name": "Grocery Store", "short_name": "Grocery Store", "plural_name": "Grocery Stores", "icon": {"prefix": "https://ss3.4sqi.net/img/categories_v2/shops/food_grocery_", "suffix": ".png"}}], "name": "Mollie Stone's"}}, "timezone": "America/Los_Angeles"}, {"fsq_id": "4a6dcaaef964a520fed21fe3", "categories": [{"id": 13035, "name": "Coffee Shop", "short_name": "Coffee Shop", "plural_name": "Coffee Shops", "icon": {"prefix": "https://ss3.4sqi.net/img/categories_v2/food/coffeeshop_", "suffix": ".png"}}], "chains": [{"id": "ab4c54c0-d68a-012e-5619-003048cad9da", "name": "Starbucks"}], "closed_bucket": "VeryLikelyOpen", "distance": 1280, "geocodes": {"main": {"latitude": 37.790693, "longitude": -122.403801}, "roof": {"latitude": 37.790693, "longitude": -122.403801}}, "link": "/v3/places/4a6dcaaef964a520fed21fe3", "location": {"address": "264 Kearny St", "census_block": "060750117004003", "country": "US", "cross_street": "at Bush St", "dma": "San Francisco-Oakland-San Jose", "formatted_address": "264 Kearny St (at Bush St), San Francisco, CA 94108", "locality": "San Francisco", "postcode": "94108", "region": "CA"}, "name": "Starbucks", "related_places": {}, "timezone": "America/Los_Angeles"}, {"fsq_id": "4a6dc9d5f964a520fcd21fe3", "categories": [{"id": 13035, "name": "Coffee Shop", "short_name": "Coffee Shop", "plural_name": "Coffee Shops", "icon": {"prefix": "https://ss3.4sqi.net/img/categories_v2/food/coffeeshop_", "suffix": ".png"}}], "chains": [{"id": "ab4c54c0-d68a-012e-5619-003048cad9da", "name": "Starbucks"}], "closed_bucket": "VeryLikelyOpen", "distance": 1157, "geocodes": {"main": {"latitude": 37.787664, "longitude": -122.401113}, "roof": {"latitude": 37.787664, "longitude": -122.401113}}, "link": "/v3/places/4a6dc9d5f964a520fcd21fe3", "location": {"address": "74 New Montgomery St", "address_extended": "Unit 218", "census_block": "060750615013007", "country": "US", "cross_street": "at Jessie St", "dma": "San Francisco-Oakland-San Jose", "formatted_address": "74 New Montgomery St (at Jessie St), San Francisco, CA 94105", "locality": "San Francisco", "postcode": "94105", "region": "CA"}, "name": "Starbucks", "related_places": {}, "timezone": "America/Los_Angeles"}, {"fsq_id": "49bd6c9ef964a5207a541fe3", "categories": [{"id": 13035, "name": "Coffee Shop", "short_name": "Coffee Shop", "plural_name": "Coffee Shops", "icon": {"prefix": "https://ss3.4sqi.net/img/categories_v2/food/coffeeshop_", "suffix": ".png"}}], "chains": [{"id": "ab4c54c0-d68a-012e-5619-003048cad9da", "name": "Starbucks"}], "closed_bucket": "VeryLikelyOpen", "distance": 1278, "geocodes": {"main": {"latitude": 37.770294, "longitude": -122.403435}}, "link": "/v3/places/49bd6c9ef964a5207a541fe3", "location": {"address": "689 Townsend St", "census_block": "060750607021004", "country": "US", "cross_street": "", "dma": "San Francisco-Oakland-San Jose", "formatted_address": "689 Townsend St, San Francisco, CA 94103", "locality": "San Francisco", "postcode": "94103", "region": "CA"}, "name": "Starbucks", "related_places": {}, "timezone": "America/Los_Angeles"}, {"fsq_id": "4ae39806f964a5200f9721e3", "categories": [{"id": 13035, "name": "Coffee Shop", "short_name": "Coffee Shop", "plural_name": "Coffee Shops", "icon": {"prefix": "https://ss3.4sqi.net/img/categories_v2/food/coffeeshop_", "suffix": ".png"}}], "chains": [{"id": "ab4c54c0-d68a-012e-5619-003048cad9da", "name": "Starbucks"}], "closed_bucket": "VeryLikelyOpen", "distance": 2341, "geocodes": {"main": {"latitude": 37.790223, "longitude": -122.433882}, "roof": {"latitude": 37.790223, "longitude": -122.433882}}, "link": "/v3/places/4ae39806f964a5200f9721e3", "location": {"address": "2222 Fillmore St", "census_block": "060750135003000", "country": "US", "cross_street": "btwn Sacramento & Clay", "dma": "San Francisco-Oakland-San Jose", "formatted_address": "2222 Fillmore St (btwn Sacramento & Clay), San Francisco, CA 94115", "locality": "San Francisco", "postcode": "94115", "region": "CA"}, "name": "Starbucks", "related_places": {}, "timezone": "America/Los_Angeles"}, {"fsq_id": "5a6296f77269fe6c590efac8", "categories": [{"id": 13035, "name": "Coffee Shop", "short_name": "Coffee Shop", "plural_name": "Coffee Shops", "icon": {"prefix": "https://ss3.4sqi.net/img/categories_v2/food/coffeeshop_", "suffix": ".png"}}], "chains": [{"id": "ab4c54c0-d68a-012e-5619-003048cad9da", "name": "Starbucks"}], "closed_bucket": "VeryLikelyOpen", "distance": 2799, "geocodes": {"main": {"latitude": 37.805311, "longitude": -122.415131}, "roof": {"latitude": 37.805311, "longitude": -122.415131}}, "link": "/v3/places/5a6296f77269fe6c590efac8", "location": {"address": "499 Bay St", "census_block": "060750101021001", "country": "US", "cross_street": "Taylor", "dma": "San Francisco-Oakland-San Jose", "formatted_address": "499 Bay St (Taylor), San Francisco, CA 94133", "locality": "San Francisco", "postcode": "94133", "region": "CA"}, "name": "Starbucks", "related_places": {}, "timezone": "America/Los_Angeles"}, {"fsq_id": "4a55303af964a520d0b31fe3", "categories": [{"id": 13035, "name": "Coffee Shop", "short_name": "Coffee Shop", "plural_name": "Coffee Shops", "icon": {"prefix": "https://ss3.4sqi.net/img/categories_v2/food/coffeeshop_", "suffix": ".png"}}], "chains": [{"id": "ab4c54c0-d68a-012e-5619-003048cad9da", "name": "Starbucks"}], "closed_bucket": "VeryLikelyOpen", "distance": 1726, "geocodes": {"main": {"latitude": 37.765796, "longitude": -122.403409}, "roof": {"latitude": 37.765796, "longitude": -122.403409}}, "link": "/v3/places/4a55303af964a520d0b31fe3", "location": {"address": "350 Rhode Island St", "address_extended": "Ste 120", "census_block": "060750607021028", "country": "US", "cross_street": "at 16th St", "dma": "San Francisco-Oakland-San Jose", "formatted_address": "350 Rhode Island St (at 16th St), San Francisco, CA 94103", "locality": "San Francisco", "postcode": "94103", "region": "CA"}, "name": "Starbucks", "related_places": {}, "timezone": "America/Los_Angeles"}, {"fsq_id": "49b71acaf964a5201d531fe3", "categories": [{"id": 13035, "name": "Coffee Shop", "short_name": "Coffee Shop", "plural_name": "Coffee Shops", "icon": {"prefix": "https://ss3.4sqi.net/img/categories_v2/food/coffeeshop_", "suffix": ".png"}}], "chains": [{"id": "ab4c54c0-d68a-012e-5619-003048cad9da", "name": "Starbucks"}], "closed_bucket": "VeryLikelyOpen", "distance": 4014, "geocodes": {"main": {"latitude": 37.799284, "longitude": -122.449472}, "roof": {"latitude": 37.799284, "longitude": -122.449472}}, "link": "/v3/places/49b71acaf964a5201d531fe3", "location": {"address": "1 Letterman Dr", "address_extended": "Bldg C", "census_block": "060750601002033", "country": "US", "cross_street": "", "dma": "San Francisco-Oakland-San Jose", "formatted_address": "1 Letterman Dr, San Francisco, CA 94129", "locality": "San Francisco", "postcode": "94129", "region": "CA"}, "name": "Starbucks", "related_places": {"parent": {"fsq_id": "49e3cda0f964a520d5621fe3", "categories": [{"id": 16026, "name": "Monument", "short_name": "Monument", "plural_name": "Monuments", "icon": {"prefix": "https://ss3.4sqi.net/img/categories_v2/building/government_monument_", "suffix": ".png"}}], "name": "Letterman Digital Arts Center"}}, "timezone": "America/Los_Angeles"}, {"fsq_id": "4ac9227ef964a520cebe20e3", "categories": [{"id": 13035, "name": "Coffee Shop", "short_name": "Coffee Shop", "plural_name": "Coffee Shops", "icon": {"prefix": "https://ss3.4sqi.net/img/categories_v2/food/coffeeshop_", "suffix": ".png"}}], "chains": [{"id": "ab4c54c0-d68a-012e-5619-003048cad9da", "name": "Starbucks"}], "closed_bucket": "VeryLikelyOpen", "distance": 2090, "geocodes": {"main": {"latitude": 37.796744, "longitude": -122.422081}, "roof": {"latitude": 37.796744, "longitude": -122.422081}}, "link": "/v3/places/4ac9227ef964a520cebe20e3", "location": {"address": "2165 Polk St", "census_block": "060750109021002", "country": "US", "cross_street": "at Vallejo St", "dma": "San Francisco-Oakland-San Jose", "formatted_address": "2165 Polk St (at Vallejo St), San Francisco, CA 94109", "locality": "San Francisco", "postcode": "94109", "region": "CA"}, "name": "Starbucks", "related_places": {}, "timezone": "America/Los_Angeles"}, {"fsq_id": "4a1e071af964a520bb7b1fe3", "categories": [{"id": 13035, "name": "Coffee Shop", "short_name": "Coffee Shop", "plural_name": "Coffee Shops", "icon": {"prefix": "https://ss3.4sqi.net/img/categories_v2/food/coffeeshop_", "suffix": ".png"}}], "chains": [{"id": "ab4c54c0-d68a-012e-5619-003048cad9da", "name": "Starbucks"}], "closed_bucket": "VeryLikelyOpen", "distance": 1950, "geocodes": {"drop_off": {"latitude": 37.763021, "longitude": -122.410556}, "main": {"latitude": 37.762898, "longitude": -122.410549}, "roof": {"latitude": 37.762898, "longitude": -122.410549}}, "link": "/v3/places/4a1e071af964a520bb7b1fe3", "location": {"address": "2727 Mariposa St", "census_block": "060750228011013", "country": "US", "cross_street": "at Bryant St", "dma": "San Francisco-Oakland-San Jose", "formatted_address": "2727 Mariposa St (at Bryant St), San Francisco, CA 94110", "locality": "San Francisco", "postcode": "94110", "region": "CA"}, "name": "Starbucks", "related_places": {}, "timezone": "America/Los_Angeles"}]