[{"fsq_id": "45073758f964a52021391fe3", "categories": [{"id": 19047, "name": "Rail Station", "short_name": "Rail Station", "plural_name": "Rail Stations", "icon": {"prefix": "https://ss3.4sqi.net/img/categories_v2/travel/trainstation_", "suffix": ".png"}}], "chains": [], "closed_bucket": "VeryLikelyOpen", "distance": 1416, "geocodes": {"main": {"latitude": 37.776602, "longitude": -122.394942}, "roof": {"latitude": 37.776602, "longitude": -122.394942}}, "link": "/v3/places/45073758f964a52021391fe3", "location": {"address": "700 4th St", "census_block": "060750607032000", "country": "US", "cross_street": "btwn King & Townsend St", "dma": "San Francisco-Oakland-San Jose", "formatted_address": "700 4th St (btwn King & Townsend St), San Francisco, CA 94107", "locality": "San Francisco", "postcode": "94107", "region": "CA"}, "name": "San Francisco Caltrain Station", "related_places": {"children": [{"fsq_id": "554b9470498eac174454ff44", "categories": [{"id": 17119, "name": "Bicycle Store", "short_name": "Bicycle Store", "plural_name": "Bicycle Stores", "icon": {"prefix": "https://ss3.4sqi.net/img/categories_v2/shops/bikeshop_", "suffix": ".png"}}], "name": "Caltrain Bike Station"}, {"fsq_id": "62fb68a24df30516aa771d5e", "categories": [{"id": 11187, "name": "Corporate Amenity", "short_name": "Corporate Amenity", "plural_name": "Corporate Amenities", "icon": {"prefix": "https://ss3.4sqi.net/img/categories_v2/building/default_", "suffix": ".png"}}], "name": "Caltrain Yard"}, {"fsq_id": "4aca55b6f964a5207ac120e3", "categories": [{"id": 13039, "name": "Deli", "short_name": "Deli", "plural_name": "Delis", "icon": {"prefix": "https://ss3.4sqi.net/img/categories_v2/food/deli_", "suffix": ".png"}}, {"id": 13145, "name": "Fast Food Restaurant", "short_name": "Fast Food", "plural_name": "Fast Food Restaurants", "icon": {"prefix": "https://ss3.4sqi.net/img/categories_v2/food/fastfood_", "suffix": ".png"}}], "name": "Subway"}, {"fsq_id": "56a97e8c498ed42195840608", "categories": [{"id": 11044, "name": "ATM", "short_name": "ATM", "plural_name": "ATMs", "icon": {"prefix": "https://ss3.4sqi.net/img/categories_v2/shops/financial_", "suffix": ".png"}}], "name": "Bank of America ATM"}]}, "timezone": "America/Los_Angeles"}, {"fsq_id": "4e320d471f6e2137f92e3eb2", "categories": [{"id": 16020, "name": "Historic and Protected Site", "short_name": "Historic and Protected Site", "plural_name": "Historic and Protected Sites", "icon": {"prefix": "https://ss3.4sqi.net/img/categories_v2/arts_entertainment/historicsite_", "suffix": ".png"}}], "chains": [], "closed_bucket": "LikelyOpen", "distance": 10667, "geocodes": {"main": {"latitude": 37.815505, "longitude": -122.297233}, "roof": {"latitude": 37.815505, "longitude": -122.297233}}, "link": "/v3/places/4e320d471f6e2137f92e3eb2", "location": {"address": "1701 Wood St", "census_block": "060014017002001", "country": "US", "cross_street": "Wood Street", "dma": "San Francisco-Oakland-San Jose", "formatted_address": "1701 Wood St (Wood Street), Oakland, CA 94607", "locality": "Oakland", "postcode": "94607", "region": "CA"}, "name": "16th Street Train Station", "related_places": {}, "timezone": "America/Los_Angeles"}, {"fsq_id": "49c2e2c9f964a5203d561fe3", "categories": [{"id": 19047, "name": "Rail Station", "short_name": "Rail Station", "plural_name": "Rail Stations", "icon": {"prefix": "https://ss3.4sqi.net/img/categories_v2/travel/trainstation_", "suffix": ".png"}}], "chains": [], "closed_bucket": "VeryLikelyOpen", "distance": 2998, "geocodes": {"main": {"latitude": 37.757471, "longitude": -122.392597}}, "link": "/v3/places/49c2e2c9f964a5203d561fe3", "location": {"address": "1149 22nd St", "census_block": "060750614022000", "country": "US", "cross_street": "at Pennsylvania Ave", "dma": "San Francisco-Oakland-San Jose", "formatted_address": "1149 22nd St (at Pennsylvania Ave), San Francisco, CA 94107", "locality": "San Francisco", "postcode": "94107", "region": "CA"}, "name": "22nd Street Caltrain Station", "related_places": {}, "timezone": "America/Los_Angeles"}, {"fsq_id": "5190781c2fc68508bb146162", "categories": [{"id": 19047, "name": "Rail Station", "short_name": "Rail Station", "plural_name": "Rail Stations", "icon": {"prefix": "https://ss3.4sqi.net/img/categories_v2/travel/trainstation_", "suffix": ".png"}}], "chains": [], "closed_bucket": "VeryLikelyOpen", "distance": 12256, "geocodes": {"main": {"latitude": 37.793819, "longitude": -122.271511}, "roof": {"latitude": 37.793819, "longitude": -122.271511}}, "link": "/v3/places/5190781c2fc68508bb146162", "location": {"address": "245 2nd St", "census_block": "060014033023004", "country": "US", "cross_street": "at Jack London Sq", "dma": "San Francisco-Oakland-San Jose", "formatted_address": "245 2nd St (at Jack London Sq), Oakland, CA 94607", "locality": "Oakland", "postcode": "94607", "region": "CA"}, "name": "Oakland \u2013 Jack London Square station", "related_places": {}, "timezone": "America/Los_Angeles"}, {"fsq_id": "4a75181df964a5207ce01fe3", "categories": [{"id": 19047, "name": "Rail Station", "short_name": "Rail Station", "plural_name": "Rail Stations", "icon": {"prefix": "https://ss3.4sqi.net/img/categories_v2/travel/trainstation_", "suffix": ".png"}}], "chains": [], "closed_bucket": "VeryLikelyOpen", "distance": 16663, "geocodes": {"main": {"latitude": 37.630513, "longitude": -122.411701}}, "link": "/v3/places/4a75181df964a5207ce01fe3", "location": {"address": "760 Huntington Ave", "census_block": "060816041042000", "country": "US", "cross_street": "at San Bruno Ave W", "dma": "San Francisco-Oakland-San Jose", "formatted_address": "760 Huntington Ave (at San Bruno Ave W), San Bruno, CA 94066", "locality": "San Bruno", "postcode": "94066", "region": "CA"}, "name": "San Bruno Caltrain Station", "related_places": {}, "timezone": "America/Los_Angeles"}, {"fsq_id": "4ef8dcba5c5c68fa0c9920fe", "categories": [{"id": 19047, "name": "Rail Station", "short_name": "Rail Station", "plural_name": "Rail Stations", "icon": {"prefix": "https://ss3.4sqi.net/img/categories_v2/travel/trainstation_", "suffix": ".png"}}], "chains": [], "closed_bucket": "LikelyOpen", "distance": 1858, "geocodes": {"main": {"latitude": 37.768498, "longitude": -122.425357}, "roof": {"latitude": 37.768498, "longitude": -122.425357}}, "link": "/v3/places/4ef8dcba5c5c68fa0c9920fe", "location": {"census_block": "060750202023001", "country": "US", "cross_street": "at Dolores", "dma": "San Francisco-Oakland-San Jose", "formatted_address": "at Dolores, San Francisco, CA 94114", "locality": "San Francisco", "postcode": "94114", "region": "CA"}, "name": "Muni Market & Dolores", "related_places": {}, "timezone": "America/Los_Angeles"}, {"fsq_id": "5190754aabd807c9d8279143", "categories": [{"id": 19047, "name": "Rail Station", "short_name": "Rail Station", "plural_name": "Rail Stations", "icon": {"prefix": "https://ss3.4sqi.net/img/categories_v2/travel/trainstation_", "suffix": ".png"}}], "chains": [], "closed_bucket": "VeryLikelyOpen", "distance": 12363, "geocodes": {"main": {"latitude": 37.840157, "longitude": -122.29067}, "roof": {"latitude": 37.840469, "longitude": -122.291934}}, "link": "/v3/places/5190754aabd807c9d8279143", "location": {"address": "5885 Horton St", "census_block": "060014251031008", "country": "US", "cross_street": "between 59th St and Powell St", "dma": "San Francisco-Oakland-San Jose", "formatted_address": "5885 Horton St (between 59th St and Powell St), Emeryville, CA 94608", "locality": "Emeryville", "postcode": "94608", "region": "CA"}, "name": "Emeryville Amtrak", "related_places": {"children": [{"fsq_id": "10bcef7a932c4d9b058f5617", "categories": [{"id": 19049, "name": "Taxi Stand", "short_name": "Taxi Stand", "plural_name": "Taxi Stands", "icon": {"prefix": "https://ss3.4sqi.net/img/categories_v2/travel/taxi_", "suffix": ".png"}}], "name": "Emeryville Taxi"}]}, "timezone": "America/Los_Angeles"}, {"fsq_id": "4e4b1eb38877da639661928c", "categories": [{"id": 19047, "name": "Rail Station", "short_name": "Rail Station", "plural_name": "Rail Stations", "icon": {"prefix": "https://ss3.4sqi.net/img/categories_v2/travel/trainstation_", "suffix": ".png"}}], "chains": [], "closed_bucket": "Unsure", "distance": 7055, "geocodes": {"main": {"latitude": 37.761163, "longitude": -122.486471}, "roof": {"latitude": 37.761163, "longitude": -122.486471}}, "link": "/v3/places/4e4b1eb38877da639661928c", "location": {"address": "28TH Ave", "census_block": "060750326021005", "country": "US", "cross_street": "at Judah Street", "dma": "San Francisco-Oakland-San Jose", "formatted_address": "28TH Ave (at Judah Street), San Francisco, CA 94122", "locality": "San Francisco", "postcode": "94122", "region": "CA"}, "name": "N-Judah 28th & Judah", "related_places": {}, "timezone": "America/Los_Angeles"}, {"fsq_id": "4dc2190ad1643ed27a48cca2", "categories": [{"id": 19047, "name": "Rail Station", "short_name": "Rail Station", "plural_name": "Rail Stations", "icon": {"prefix": "https://ss3.4sqi.net/img/categories_v2/travel/trainstation_", "suffix": ".png"}}], "chains": [], "closed_bucket": "VeryLikelyOpen", "distance": 8902, "geocodes": {"main": {"latitude": 37.759259, "longitude": -122.508205}, "roof": {"latitude": 37.759259, "longitude": -122.508205}}, "link": "/v3/places/4dc2190ad1643ed27a48cca2", "location": {"address": "Judah St", "census_block": "060750352023005", "country": "US", "cross_street": "at 43rd Ave.", "dma": "San Francisco-Oakland-San Jose", "formatted_address": "Judah St (at 43rd Ave.), San Francisco, CA 94122", "locality": "San Francisco", "postcode": "94122", "region": "CA"}, "name": "MUNI Metro Stop - Judah & 43rd", "related_places": {}, "timezone": "America/Los_Angeles"}, {"fsq_id": "49f793caf964a520ba6c1fe3", "categories": [{"id": 19047, "name": "Rail Station", "short_name": "Rail Station", "plural_name": "Rail Stations", "icon": {"prefix": "https://ss3.4sqi.net/img/categories_v2/travel/trainstation_", "suffix": ".png"}}], "chains": [], "closed_bucket": "VeryLikelyOpen", "distance": 23007, "geocodes": {"main": {"latitude": 37.579944, "longitude": -122.34504}, "roof": {"latitude": 37.579944, "longitude": -122.34504}}, "link": "/v3/places/49f793caf964a520ba6c1fe3", "location": {"address": "290 California Dr", "census_block": "060816055012000", "country": "US", "cross_street": "at Burlingame Ave", "dma": "San Francisco-Oakland-San Jose", "formatted_address": "290 California Dr (at Burlingame Ave), Burlingame, CA 94010", "locality": "Burlingame", "postcode": "94010", "region": "CA"}, "name": "Burlingame Caltrain Station", "related_places": {}, "timezone": "America/Los_Angeles"}, {"fsq_id": "50ca2112e4b0660c81745b8a", "categories": [{"id": 19047, "name": "Rail Station", "short_name": "Rail Station", "plural_name": "Rail Stations", "icon": {"prefix": "https://ss3.4sqi.net/img/categories_v2/travel/trainstation_", "suffix": ".png"}}], "chains": [], "closed_bucket": "LikelyOpen", "distance": 10239, "geocodes": {"drop_off": {"latitude": 37.798238, "longitude": -122.295844}, "main": {"latitude": 37.798388, "longitude": -122.295883}}, "link": "/v3/places/50ca2112e4b0660c81745b8a", "location": {"address": "1408 Middle Harbor Rd", "census_block": "060019819001011", "country": "US", "cross_street": "", "dma": "San Francisco-Oakland-San Jose", "formatted_address": "1408 Middle Harbor Rd, Oakland, CA 94607", "locality": "Oakland", "postcode": "94607", "region": "CA"}, "name": "Union Pacific Railroad", "related_places": {}, "timezone": "America/Los_Angeles"}, {"fsq_id": "5069f29be4b0058e9e6f1659", "categories": [{"id": 19047, "name": "Rail Station", "short_name": "Rail Station", "plural_name": "Rail Stations", "icon": {"prefix": "https://ss3.4sqi.net/img/categories_v2/travel/trainstation_", "suffix": ".png"}}], "chains": [], "closed_bucket": "VeryLikelyOpen", "distance": 12243, "geocodes": {"main": {"latitude": 37.793776, "longitude": -122.272082}, "roof": {"latitude": 37.793776, "longitude": -122.272082}}, "link": "/v3/places/5069f29be4b0058e9e6f1659", "location": {"census_block": "060019832002018", "country": "US", "cross_street": "", "dma": "San Francisco-Oakland-San Jose", "formatted_address": "Oakland, CA 94607", "locality": "Oakland", "postcode": "94607", "region": "CA"}, "name": "Amtrak Ticket Counter", "related_places": {}, "timezone": "America/Los_Angeles"}, {"fsq_id": "4a751564f964a52079e01fe3", "categories": [{"id": 19047, "name": "Rail Station", "short_name": "Rail Station", "plural_name": "Rail Stations", "icon": {"prefix": "https://ss3.4sqi.net/img/categories_v2/travel/trainstation_", "suffix": ".png"}}], "chains": [], "closed_bucket": "VeryLikelyOpen", "distance": 8075, "geocodes": {"main": {"latitude": 37.709174, "longitude": -122.401078}, "roof": {"latitude": 37.709174, "longitude": -122.401078}}, "link": "/v3/places/4a751564f964a52079e01fe3", "location": {"address": "400 Tunnel Ave", "census_block": "060750610001012", "country": "US", "cross_street": "btwn Lathrop Ave & Beatty Dr", "dma": "San Francisco-Oakland-San Jose", "formatted_address": "400 Tunnel Ave (btwn Lathrop Ave & Beatty Dr), San Francisco, CA 94134", "locality": "San Francisco", "postcode": "94134", "region": "CA"}, "name": "Bayshore Caltrain Station", "related_places": {}, "timezone": "America/Los_Angeles"}, {"fsq_id": "4ca7a0a6931bb60c4f799fe2", "categories": [{"id": 19047, "name": "Rail Station", "short_name": "Rail Station", "plural_name": "Rail Stations", "icon": {"prefix": "https://ss3.4sqi.net/img/categories_v2/travel/trainstation_", "suffix": ".png"}}], "chains": [], "closed_bucket": "LikelyOpen", "distance": 16732, "geocodes": {"main": {"latitude": 37.929013, "longitude": -122.380525}, "roof": {"latitude": 37.929013, "longitude": -122.380525}}, "link": "/v3/places/4ca7a0a6931bb60c4f799fe2", "location": {"address": "324 S Garrard Blvd", "census_block": "060133780001077", "country": "US", "cross_street": "", "dma": "San Francisco-Oakland-San Jose", "formatted_address": "324 S Garrard Blvd, Richmond, CA 94801", "locality": "Richmond", "postcode": "94801", "region": "CA"}, "name": "BNSF Richmond Yard", "related_places": {}, "timezone": "America/Los_Angeles"}, {"fsq_id": "4b19a28ef964a520e7e023e3", "categories": [{"id": 19047, "name": "Rail Station", "short_name": "Rail Station", "plural_name": "Rail Stations", "icon": {"prefix": "https://ss3.4sqi.net/img/categories_v2/travel/trainstation_", "suffix": ".png"}}], "chains": [{"id": "beb356c9-a0ae-4354-a6dd-65f099934844", "name": "Amtrak"}], "closed_bucket": "VeryLikelyOpen", "distance": 13615, "geocodes": {"main": {"latitude": 37.867087, "longitude": -122.300585}, "roof": {"latitude": 37.867087, "longitude": -122.300585}}, "link": "/v3/places/4b19a28ef964a520e7e023e3", "location": {"address": "700 University Ave", "census_block": "060014220001015", "country": "US", "cross_street": "at Third St", "dma": "San Francisco-Oakland-San Jose", "formatted_address": "700 University Ave (at Third St), Berkeley, CA 94710", "locality": "Berkeley", "postcode": "94710", "region": "CA"}, "name": "Berkeley Station (BKY)", "related_places": {}, "timezone": "America/Los_Angeles"}, {"fsq_id": "4813c1bcf964a520474f1fe3", "categories": [{"id": 19047, "name": "Rail Station", "short_name": "Rail Station", "plural_name": "Rail Stations", "icon": {"prefix": "https://ss3.4sqi.net/img/categories_v2/travel/trainstation_", "suffix": ".png"}}], "chains": [], "closed_bucket": "VeryLikelyOpen", "distance": 16717, "geocodes": {"main": {"latitude": 37.902634, "longitude": -122.298987}, "roof": {"latitude": 37.902634, "longitude": -122.298987}}, "link": "/v3/places/4813c1bcf964a520474f1fe3", "location": {"address": "6699 Fairmount Ave", "census_block": "060133891002007", "country": "US", "cross_street": "at Liberty St.", "dma": "San Francisco-Oakland-San Jose", "formatted_address": "6699 Fairmount Ave (at Liberty St.), El Cerrito, CA 94530", "locality": "El Cerrito", "postcode": "94530", "region": "CA"}, "name": "El Cerrito Plaza BART Station", "related_places": {}, "timezone": "America/Los_Angeles"}, {"fsq_id": "5da1149b5f1f4300088c6ed0", "categories": [{"id": 19047, "name": "Rail Station", "short_name": "Rail Station", "plural_name": "Rail Stations", "icon": {"prefix": "https://ss3.4sqi.net/img/categories_v2/travel/trainstation_", "suffix": ".png"}}], "chains": [], "closed_bucket": "VeryLikelyOpen", "distance": 20633, "geocodes": {"main": {"latitude": 37.948233, "longitude": -122.512308}, "roof": {"latitude": 37.948233, "longitude": -122.512308}}, "link": "/v3/places/5da1149b5f1f4300088c6ed0", "location": {"address": "600 Larkspur Landing Cir", "census_block": "060411212002017", "country": "US", "cross_street": "", "dma": "San Francisco-Oakland-San Jose", "formatted_address": "600 Larkspur Landing Cir, Larkspur, CA 94939", "locality": "Larkspur", "postcode": "94939", "region": "CA"}, "name": "SMART Train Larkspur Station", "related_places": {}, "timezone": "America/Los_Angeles"}, {"fsq_id": "5190799d2fc68508bb155c1d", "categories": [{"id": 19047, "name": "Rail Station", "short_name": "Rail Station", "plural_name": "Rail Stations", "icon": {"prefix": "https://ss3.4sqi.net/img/categories_v2/travel/trainstation_", "suffix": ".png"}}], "chains": [], "closed_bucket": "VeryLikelyOpen", "distance": 18895, "geocodes": {"main": {"latitude": 37.752227, "longitude": -122.197875}}, "link": "/v3/places/5190799d2fc68508bb155c1d", "location": {"address": "700 73rd Ave", "census_block": "060014089001012", "country": "US", "cross_street": "San Leandro Street", "dma": "San Francisco-Oakland-San Jose", "formatted_address": "700 73rd Ave (San Leandro Street), Oakland, CA 94621", "locality": "Oakland", "postcode": "94621", "region": "CA"}, "name": "Oakland Coliseum Station", "related_places": {}, "timezone": "America/Los_Angeles"}, {"fsq_id": "4813c4f3f964a5204e4f1fe3", "categories": [{"id": 19054, "name": "Public Transportation", "short_name": "Public Transportation", "plural_name": "Public Transportation", "icon": {"prefix": "https://ss3.4sqi.net/img/categories_v2/travel/taxi_", "suffix": ".png"}}], "chains": [], "closed_bucket": "VeryLikelyOpen", "distance": 22817, "geocodes": {"main": {"latitude": 37.72183, "longitude": -122.160704}, "roof": {"latitude": 37.72183, "longitude": -122.160704}}, "link": "/v3/places/4813c4f3f964a5204e4f1fe3", "location": {"address": "1401 San Leandro Blvd", "census_block": "060014326011024", "country": "US", "cross_street": "at W Estudillo Ave", "dma": "San Francisco-Oakland-San Jose", "formatted_address": "1401 San Leandro Blvd (at W Estudillo Ave), San Leandro, CA 94577", "locality": "San Leandro", "postcode": "94577", "region": "CA"}, "name": "San Leandro BART Station", "related_places": {}, "timezone": "America/Los_Angeles"}, {"fsq_id": "415f4100f964a5205a1d1fe3", "categories": [{"id": 19047, "name": "Rail Station", "short_name": "Rail Station", "plural_name": "Rail Stations", "icon": {"prefix": "https://ss3.4sqi.net/img/categories_v2/travel/trainstation_", "suffix": ".png"}}], "chains": [], "closed_bucket": "LikelyOpen", "distance": 28012, "geocodes": {"main": {"latitude": 37.893161, "longitude": -122.124925}, "roof": {"latitude": 37.893161, "longitude": -122.124925}}, "link": "/v3/places/415f4100f964a5205a1d1fe3", "location": {"address": "3601 Deer Hill Rd", "census_block": "060133480003017", "country": "US", "cross_street": "at Oak Hill Rd", "dma": "San Francisco-Oakland-San Jose", "formatted_address": "3601 Deer Hill Rd (at Oak Hill Rd), Lafayette, CA 94549", "locality": "Lafayette", "postcode": "94549", "region": "CA"}, "name": "Lafayette BART Station", "related_places": {}, "timezone": "America/Los_Angeles"}, {"fsq_id": "4a568ab2f964a5205ab51fe3", "categories": [{"id": 19047, "name": "Rail Station", "short_name": "Rail Station", "plural_name": "Rail Stations", "icon": {"prefix": "https://ss3.4sqi.net/img/categories_v2/travel/trainstation_", "suffix": ".png"}}], "chains": [], "closed_bucket": "LikelyOpen", "distance": 20132, "geocodes": {"main": {"latitude": 37.60021, "longitude": -122.386875}, "roof": {"latitude": 37.60021, "longitude": -122.386875}}, "link": "/v3/places/4a568ab2f964a5205ab51fe3", "location": {"address": "100 California Dr", "census_block": "060816044002023", "country": "US", "cross_street": "at E Millbrae Ave", "dma": "San Francisco-Oakland-San Jose", "formatted_address": "100 California Dr (at E Millbrae Ave), Millbrae, CA 94030", "locality": "Millbrae", "postcode": "94030", "region": "CA"}, "name": "Millbrae Caltrain Station", "related_places": {}, "timezone": "America/Los_Angeles"}, {"fsq_id": "4a751a0bf964a52080e01fe3", "categories": [{"id": 19047, "name": "Rail Station", "short_name": "Rail Station", "plural_name": "Rail Stations", "icon": {"prefix": "https://ss3.4sqi.net/img/categories_v2/travel/trainstation_", "suffix": ".png"}}], "chains": [], "closed_bucket": "LikelyOpen", "distance": 21848, "geocodes": {"main": {"latitude": 37.587586, "longitude": -122.36302}, "roof": {"latitude": 37.587586, "longitude": -122.36302}}, "link": "/v3/places/4a751a0bf964a52080e01fe3", "location": {"address": "1190 California Dr", "census_block": "060816051002027", "country": "US", "cross_street": "at Broadway", "dma": "San Francisco-Oakland-San Jose", "formatted_address": "1190 California Dr (at Broadway), Burlingame, CA 94010", "locality": "Burlingame", "postcode": "94010", "region": "CA"}, "name": "Broadway Caltrain Station", "related_places": {}, "timezone": "America/Los_Angeles"}, {"fsq_id": "5962afe4603d2a7c9490a8fc", "categories": [{"id": 19047, "name": "Rail Station", "short_name": "Rail Station", "plural_name": "Rail Stations", "icon": {"prefix": "https://ss3.4sqi.net/img/categories_v2/travel/trainstation_", "suffix": ".png"}}], "chains": [], "closed_bucket": "LikelyOpen", "distance": 26957, "geocodes": {"main": {"latitude": 38.001209, "longitude": -122.537679}}, "link": "/v3/places/5962afe4603d2a7c9490a8fc", "location": {"census_block": "060411082012001", "country": "US", "cross_street": "", "dma": "San Francisco-Oakland-San Jose", "formatted_address": "San Rafael, CA 94903", "locality": "San Rafael", "postcode": "94903", "region": "CA"}, "name": "Marin Civic Center SMART Station", "related_places": {}, "timezone": "America/Los_Angeles"}, {"fsq_id": "4aaaa14bf964a520b25620e3", "categories": [{"id": 19047, "name": "Rail Station", "short_name": "Rail Station", "plural_name": "Rail Stations", "icon": {"prefix": "https://ss3.4sqi.net/img/categories_v2/travel/trainstation_", "suffix": ".png"}}], "chains": [], "closed_bucket": "VeryLikelyOpen", "distance": 13947, "geocodes": {"main": {"latitude": 37.65497160771689, "longitude": -122.40578413009644}}, "link": "/v3/places/4aaaa14bf964a520b25620e3", "location": {"address": "590 Dubuque Ave", "census_block": "060816023002017", "country": "US", "cross_street": "at Grand Ave", "dma": "San Francisco-Oakland-San Jose", "formatted_address": "590 Dubuque Ave (at Grand Ave), South San Francisco, CA 94080", "locality": "South San Francisco", "postcode": "94080", "region": "CA"}, "name": "South San Francisco Caltrain Station", "related_places": {"children": []}, "timezone": "America/Los_Angeles"}, {"fsq_id": "464f5772f964a520c7461fe3", "categories": [{"id": 19047, "name": "Rail Station", "short_name": "Rail Station", "plural_name": "Rail Stations", "icon": {"prefix": "https://ss3.4sqi.net/img/categories_v2/travel/trainstation_", "suffix": ".png"}}], "chains": [], "closed_bucket": "LikelyOpen", "distance": 28622, "geocodes": {"main": {"latitude": 37.538142, "longitude": -122.298033}, "roof": {"latitude": 37.538142, "longitude": -122.298033}}, "link": "/v3/places/464f5772f964a520c7461fe3", "location": {"address": "3333 S El Camino Real", "census_block": "060816075002021", "country": "US", "cross_street": "at E Hillsdale Blvd", "dma": "San Francisco-Oakland-San Jose", "formatted_address": "3333 S El Camino Real (at E Hillsdale Blvd), San Mateo, CA 94403", "locality": "San Mateo", "postcode": "94403", "region": "CA"}, "name": "Hillsdale Station", "related_places": {}, "timezone": "America/Los_Angeles"}, {"fsq_id": "51907d102fc68508bb17aa98", "categories": [{"id": 19047, "name": "Rail Station", "short_name": "Rail Station", "plural_name": "Rail Stations", "icon": {"prefix": "https://ss3.4sqi.net/img/categories_v2/travel/trainstation_", "suffix": ".png"}}], "chains": [], "closed_bucket": "VeryLikelyOpen", "distance": 18069, "geocodes": {"main": {"latitude": 37.936705, "longitude": -122.353258}, "roof": {"latitude": 37.936705, "longitude": -122.353258}}, "link": "/v3/places/51907d102fc68508bb17aa98", "location": {"address": "1700 Nevin Ave", "census_block": "060133750002007", "country": "US", "cross_street": "at 16th St", "dma": "San Francisco-Oakland-San Jose", "formatted_address": "1700 Nevin Ave (at 16th St), Richmond, CA 94801", "locality": "Richmond", "postcode": "94801", "region": "CA"}, "name": "Richmond Amtrak Station", "related_places": {}, "timezone": "America/Los_Angeles"}, {"fsq_id": "4b50c099f964a520f13027e3", "categories": [{"id": 19014, "name": "Hotel", "short_name": "Hotel", "plural_name": "Hotels", "icon": {"prefix": "https://ss3.4sqi.net/img/categories_v2/travel/hotel_", "suffix": ".png"}}], "chains": [], "closed_bucket": "VeryLikelyOpen", "distance": 856, "geocodes": {"main": {"latitude": 37.787996, "longitude": -122.412173}, "roof": {"latitude": 37.787996, "longitude": -122.412173}}, "link": "/v3/places/4b50c099f964a520f13027e3", "location": {"address": "624 Post St", "census_block": "060750121003000", "country": "US", "cross_street": "btwn Taylor & Post", "dma": "San Francisco-Oakland-San Jose", "formatted_address": "624 Post St (btwn Taylor & Post), San Francisco, CA 94109", "locality": "San Francisco", "postcode": "94109", "region": "CA"}, "name": "The Andrews Hotel", "related_places": {"children": [{"fsq_id": "4a19721ef964a520197a1fe3", "categories": [{"id": 13064, "name": "Pizzeria", "short_name": "Pizza", "plural_name": "Pizzerias", "icon": {"prefix": "https://ss3.4sqi.net/img/categories_v2/food/pizza_", "suffix": ".png"}}, {"id": 13236, "name": "Italian Restaurant", "short_name": "Italian", "plural_name": "Italian Restaurants", "icon": {"prefix": "https://ss3.4sqi.net/img/categories_v2/food/italian_", "suffix": ".png"}}], "name": "Fino Restaurant"}]}, "timezone": "America/Los_Angeles"}, {"fsq_id": "c64277d176c24addf053fcbd", "categories": [{"id": 19047, "name": "Rail Station", "short_name": "Rail Station", "plural_name": "Rail Stations", "icon": {"prefix": "https://ss3.4sqi.net/img/categories_v2/travel/trainstation_", "suffix": ".png"}}], "chains": [], "closed_bucket": "VeryLikelyOpen", "distance": 1182, "geocodes": {"main": {"latitude": 37.788862, "longitude": -122.402116}, "roof": {"latitude": 37.788862, "longitude": -122.402116}}, "link": "/v3/places/c64277d176c24addf053fcbd", "location": {"address": "298 Market St", "census_block": "060750117004011", "country": "US", "dma": "San Francisco-Oakland-San Jose", "formatted_address": "298 Market St, San Francisco, CA 94104", "locality": "San Francisco", "postcode": "94104", "region": "CA"}, "name": "MUNI / BART Station", "related_places": {}}, {"fsq_id": "5310868f3aef498bc292b0f0", "categories": [{"id": 19047, "name": "Rail Station", "short_name": "Rail Station", "plural_name": "Rail Stations", "icon": {"prefix": "https://ss3.4sqi.net/img/categories_v2/travel/trainstation_", "suffix": ".png"}}], "chains": [], "closed_bucket": "Unsure", "distance": 1324, "geocodes": {"main": {"latitude": 37.789941, "longitude": -122.401247}, "roof": {"latitude": 37.789941, "longitude": -122.401247}}, "link": "/v3/places/5310868f3aef498bc292b0f0", "location": {"address": "41 Sutter St", "census_block": "060750117004010", "country": "US", "dma": "San Francisco-Oakland-San Jose", "formatted_address": "41 Sutter St, San Francisco, CA 94104", "locality": "San Francisco", "postcode": "94104", "region": "CA"}, "name": "Pacific Railroad Company of California", "related_places": {}}, {"fsq_id": "96b8ca48fbc54a09d6ea64ef", "categories": [{"id": 19047, "name": "Rail Station", "short_name": "Rail Station", "plural_name": "Rail Stations", "icon": {"prefix": "https://ss3.4sqi.net/img/categories_v2/travel/trainstation_", "suffix": ".png"}}], "chains": [], "closed_bucket": "Unsure", "distance": 1409, "geocodes": {"main": {"latitude": 37.776797, "longitude": -122.394953}, "roof": {"latitude": 37.776797, "longitude": -122.394953}}, "link": "/v3/places/96b8ca48fbc54a09d6ea64ef", "location": {"address": "700 4th St", "address_extended": "Ste 4", "census_block": "060750607032000", "country": "US", "dma": "San Francisco-Oakland-San Jose", "formatted_address": "700 4th St, San Francisco, CA 94107", "locality": "San Francisco", "postcode": "94107", "region": "CA"}, "name": "Caltrain", "related_places": {}}]