[{"fsq_id": "4b4955ccf964a520b86d26e3", "categories": [{"id": 13303, "name": "Mexican Restaurant", "short_name": "Mexican", "plural_name": "Mexican Restaurants", "icon": {"prefix": "https://ss3.4sqi.net/img/categories_v2/food/mexican_", "suffix": ".png"}}, {"id": 13377, "name": "Vegan and Vegetarian Restaurant", "short_name": "Vegan and Vegetarian Restaurant", "plural_name": "Vegan and Vegetarian Restaurants", "icon": {"prefix": "https://ss3.4sqi.net/img/categories_v2/food/vegetarian_", "suffix": ".png"}}], "chains": [], "closed_bucket": "Unsure", "distance": 2243, "geocodes": {"main": {"latitude": 37.761556, "longitude": -122.419141}, "roof": {"latitude": 37.761556, "longitude": -122.419141}}, "link": "/v3/places/4b4955ccf964a520b86d26e3", "location": {"address": "2211 Mission St", "census_block": "060750208022001", "country": "US", "cross_street": "at 18th St", "dma": "San Francisco-Oakland-San Jose", "formatted_address": "2211 Mission St (at 18th St), San Francisco, CA 94110", "locality": "San Francisco", "postcode": "94110", "region": "CA"}, "name": "Gracias Madre", "related_places": {}, "timezone": "America/Los_Angeles"}, {"fsq_id": "54a8b5d1498ef8abe40ce6b3", "categories": [{"id": 13276, "name": "Sushi Restaurant", "short_name": "Sushi", "plural_name": "Sushi Restaurants", "icon": {"prefix": "https://ss3.4sqi.net/img/categories_v2/food/sushi_", "suffix": ".png"}}], "chains": [], "closed_bucket": "LikelyOpen", "distance": 1683, "geocodes": {"drop_off": {"latitude": 37.768176, "longitude": -122.421683}, "main": {"latitude": 37.768028, "longitude": -122.421674}, "roof": {"latitude": 37.768028, "longitude": -122.421674}}, "link": "/v3/places/54a8b5d1498ef8abe40ce6b3", "location": {"address": "370 14th St", "census_block": "060750201012010", "country": "US", "cross_street": "at Stevenson St", "dma": "San Francisco-Oakland-San Jose", "formatted_address": "370 14th St (at Stevenson St), San Francisco, CA 94103", "locality": "San Francisco", "postcode": "94103", "region": "CA"}, "name": "Shizen", "related_places": {}, "timezone": "America/Los_Angeles"}, {"fsq_id": "56b4af45498e429dd2223d46", "categories": [{"id": 13272, "name": "Ramen Restaurant", "short_name": "Ramen", "plural_name": "Ramen Restaurants", "icon": {"prefix": "https://ss3.4sqi.net/img/categories_v2/food/ramen_", "suffix": ".png"}}], "chains": [], "closed_bucket": "LikelyOpen", "distance": 764, "geocodes": {"drop_off": {"latitude": 37.786587, "longitude": -122.414371}, "main": {"latitude": 37.786781, "longitude": -122.414395}, "roof": {"latitude": 37.786781, "longitude": -122.414395}}, "link": "/v3/places/56b4af45498e429dd2223d46", "location": {"address": "676 Geary St", "census_block": "060750123021001", "country": "US", "cross_street": "at Leavenworth St", "dma": "San Francisco-Oakland-San Jose", "formatted_address": "676 Geary St (at Leavenworth St), San Francisco, CA 94102", "locality": "San Francisco", "postcode": "94102", "region": "CA"}, "name": "Mensho Tokyo", "related_places": {}, "timezone": "America/Los_Angeles"}, {"fsq_id": "49daaa1ff964a520a15e1fe3", "categories": [{"id": 13046, "name": "Ice Cream Parlor", "short_name": "Ice Cream", "plural_name": "Ice Cream Parlors", "icon": {"prefix": "https://ss3.4sqi.net/img/categories_v2/food/icecream_", "suffix": ".png"}}, {"id": 13065, "name": "Restaurant", "short_name": "Restaurant", "plural_name": "Restaurants", "icon": {"prefix": "https://ss3.4sqi.net/img/categories_v2/food/default_", "suffix": ".png"}}], "chains": [], "closed_bucket": "LikelyOpen", "distance": 5302, "geocodes": {"main": {"latitude": 37.762352, "longitude": -122.465909}, "roof": {"latitude": 37.762352, "longitude": -122.465909}}, "link": "/v3/places/49daaa1ff964a520a15e1fe3", "location": {"address": "1392 9th Ave", "census_block": "060750302022001", "country": "US", "cross_street": "btwn Judah & Irving St", "dma": "San Francisco-Oakland-San Jose", "formatted_address": "1392 9th Ave (btwn Judah & Irving St), San Francisco, CA 94122", "locality": "San Francisco", "postcode": "94122", "region": "CA"}, "name": "Holy Gelato", "related_places": {}, "timezone": "America/Los_Angeles"}, {"fsq_id": "4b54afd9f964a52016c727e3", "categories": [{"id": 13057, "name": "Gastropub", "short_name": "Gastropub", "plural_name": "Gastropubs", "icon": {"prefix": "https://ss3.4sqi.net/img/categories_v2/food/gastropub_", "suffix": ".png"}}, {"id": 13068, "name": "American Restaurant", "short_name": "American", "plural_name": "American Restaurants", "icon": {"prefix": "https://ss3.4sqi.net/img/categories_v2/food/default_", "suffix": ".png"}}, {"id": 13165, "name": "German Restaurant", "short_name": "German", "plural_name": "German Restaurants", "icon": {"prefix": "https://ss3.4sqi.net/img/categories_v2/food/german_", "suffix": ".png"}}], "chains": [], "closed_bucket": "Unsure", "distance": 3290, "geocodes": {"main": {"latitude": 37.751554, "longitude": -122.418766}, "roof": {"latitude": 37.751554, "longitude": -122.418766}}, "link": "/v3/places/4b54afd9f964a52016c727e3", "location": {"address": "2832 Mission St", "census_block": "060750209004005", "country": "US", "cross_street": "Btw 24th & 25th", "dma": "San Francisco-Oakland-San Jose", "formatted_address": "2832 Mission St (Btw 24th & 25th), San Francisco, CA 94110", "locality": "San Francisco", "postcode": "94110", "region": "CA"}, "name": "Rosamunde Sausage Grill", "related_places": {}, "timezone": "America/Los_Angeles"}, {"fsq_id": "4ca4d6a3d7c33704acd2ac62", "categories": [{"id": 13064, "name": "Pizzeria", "short_name": "Pizza", "plural_name": "Pizzerias", "icon": {"prefix": "https://ss3.4sqi.net/img/categories_v2/food/pizza_", "suffix": ".png"}}, {"id": 13002, "name": "Bakery", "short_name": "Bakery", "plural_name": "Bakeries", "icon": {"prefix": "https://ss3.4sqi.net/img/categories_v2/food/bakery_", "suffix": ".png"}}], "chains": [], "closed_bucket": "LikelyOpen", "distance": 3237, "geocodes": {"main": {"latitude": 37.752626, "longitude": -122.420979}, "roof": {"latitude": 37.752626, "longitude": -122.420979}}, "link": "/v3/places/4ca4d6a3d7c33704acd2ac62", "location": {"address": "1268 Valencia St", "census_block": "060750210002000", "country": "US", "cross_street": "at 24th St", "dma": "San Francisco-Oakland-San Jose", "formatted_address": "1268 Valencia St (at 24th St), San Francisco, CA 94110", "locality": "San Francisco", "postcode": "94110", "region": "CA"}, "name": "Arizmendi Bakery Panaderia & Pizzeria", "related_places": {}, "timezone": "America/Los_Angeles"}, {"fsq_id": "589d125b005a0f47b970b12b", "categories": [{"id": 13046, "name": "Ice Cream Parlor", "short_name": "Ice Cream", "plural_name": "Ice Cream Parlors", "icon": {"prefix": "https://ss3.4sqi.net/img/categories_v2/food/icecream_", "suffix": ".png"}}, {"id": 13065, "name": "Restaurant", "short_name": "Restaurant", "plural_name": "Restaurants", "icon": {"prefix": "https://ss3.4sqi.net/img/categories_v2/food/default_", "suffix": ".png"}}], "chains": [], "closed_bucket": "LikelyOpen", "distance": 2587, "geocodes": {"main": {"latitude": 37.75878, "longitude": -122.420411}, "roof": {"latitude": 37.75878, "longitude": -122.420411}}, "link": "/v3/places/589d125b005a0f47b970b12b", "location": {"address": "3566 20th St", "census_block": "060750208011003", "country": "US", "cross_street": "at Lexington St", "dma": "San Francisco-Oakland-San Jose", "formatted_address": "3566 20th St (at Lexington St), San Francisco, CA 94110", "locality": "San Francisco", "postcode": "94110", "region": "CA"}, "name": "Garden Creamery", "related_places": {}, "timezone": "America/Los_Angeles"}, {"fsq_id": "4827b8b1f964a520bb4f1fe3", "categories": [{"id": 17069, "name": "Grocery Store", "short_name": "Grocery Store", "plural_name": "Grocery Stores", "icon": {"prefix": "https://ss3.4sqi.net/img/categories_v2/shops/food_grocery_", "suffix": ".png"}}, {"id": 17071, "name": "Health Food Store", "short_name": "Health Food Store", "plural_name": "Health Food Stores", "icon": {"prefix": "https://ss3.4sqi.net/img/categories_v2/shops/food_grocery_", "suffix": ".png"}}], "chains": [], "closed_bucket": "LikelyOpen", "distance": 1301, "geocodes": {"main": {"latitude": 37.769142, "longitude": -122.415217}, "roof": {"latitude": 37.769142, "longitude": -122.415217}}, "link": "/v3/places/4827b8b1f964a520bb4f1fe3", "location": {"address": "1745 Folsom St", "census_block": "060750177002017", "country": "US", "cross_street": "at 13th St", "dma": "San Francisco-Oakland-San Jose", "formatted_address": "1745 Folsom St (at 13th St), San Francisco, CA 94103", "locality": "San Francisco", "postcode": "94103", "region": "CA"}, "name": "Rainbow Grocery", "related_places": {"children": []}, "timezone": "America/Los_Angeles"}, {"fsq_id": "453a2ab0f964a520e63b1fe3", "categories": [{"id": 13068, "name": "American Restaurant", "short_name": "American", "plural_name": "American Restaurants", "icon": {"prefix": "https://ss3.4sqi.net/img/categories_v2/food/default_", "suffix": ".png"}}, {"id": 13377, "name": "Vegan and Vegetarian Restaurant", "short_name": "Vegan and Vegetarian Restaurant", "plural_name": "Vegan and Vegetarian Restaurants", "icon": {"prefix": "https://ss3.4sqi.net/img/categories_v2/food/vegetarian_", "suffix": ".png"}}], "chains": [], "closed_bucket": "Unsure", "distance": 15781, "geocodes": {"drop_off": {"latitude": 37.847447, "longitude": -122.252089}, "main": {"latitude": 37.847471, "longitude": -122.251851}, "roof": {"latitude": 37.847471, "longitude": -122.251851}}, "link": "/v3/places/453a2ab0f964a520e63b1fe3", "location": {"address": "5912 College Ave", "census_block": "060014002001018", "country": "US", "cross_street": "", "dma": "San Francisco-Oakland-San Jose", "formatted_address": "5912 College Ave, Oakland, CA 94618", "locality": "Oakland", "postcode": "94618", "region": "CA"}, "name": "Millennium", "related_places": {}, "timezone": "America/Los_Angeles"}, {"fsq_id": "4c90bba651d9b1f779347a46", "categories": [{"id": 13377, "name": "Vegan and Vegetarian Restaurant", "short_name": "Vegan and Vegetarian Restaurant", "plural_name": "Vegan and Vegetarian Restaurants", "icon": {"prefix": "https://ss3.4sqi.net/img/categories_v2/food/vegetarian_", "suffix": ".png"}}, {"id": 13001, "name": "Bagel Shop", "short_name": "Bagels", "plural_name": "Bagel Shops", "icon": {"prefix": "https://ss3.4sqi.net/img/categories_v2/food/bagels_", "suffix": ".png"}}, {"id": 13002, "name": "Bakery", "short_name": "Bakery", "plural_name": "Bakeries", "icon": {"prefix": "https://ss3.4sqi.net/img/categories_v2/food/bakery_", "suffix": ".png"}}], "chains": [], "closed_bucket": "Unsure", "distance": 13123, "geocodes": {"drop_off": {"latitude": 37.843664, "longitude": -122.284017}, "main": {"latitude": 37.843599, "longitude": -122.28422}, "roof": {"latitude": 37.843599, "longitude": -122.28422}}, "link": "/v3/places/4c90bba651d9b1f779347a46", "location": {"address": "6037 San Pablo Ave", "census_block": "060014008003004", "country": "US", "cross_street": "btwn 60th & 61st St", "dma": "San Francisco-Oakland-San Jose", "formatted_address": "6037 San Pablo Ave (btwn 60th & 61st St), Oakland, CA 94608", "locality": "Oakland", "postcode": "94608", "region": "CA"}, "name": "Pepples Donut Farm", "related_places": {}, "timezone": "America/Los_Angeles"}, {"fsq_id": "4c393e38dfb0e21e2a3ab0a8", "categories": [{"id": 13334, "name": "Sandwich Spot", "short_name": "Sandwich Spot", "plural_name": "Sandwich Spots", "icon": {"prefix": "https://ss3.4sqi.net/img/categories_v2/food/deli_", "suffix": ".png"}}, {"id": 13379, "name": "Vietnamese Restaurant", "short_name": "Vietnamese", "plural_name": "Vietnamese Restaurants", "icon": {"prefix": "https://ss3.4sqi.net/img/categories_v2/food/vietnamese_", "suffix": ".png"}}], "chains": [], "closed_bucket": "VeryLikelyOpen", "distance": 2611, "geocodes": {"main": {"latitude": 37.76458, "longitude": -122.432148}, "roof": {"latitude": 37.76458, "longitude": -122.432148}}, "link": "/v3/places/4c393e38dfb0e21e2a3ab0a8", "location": {"address": "2275 Market St", "address_extended": "Ste H", "census_block": "060750203003004", "country": "US", "cross_street": "at 16th", "dma": "San Francisco-Oakland-San Jose", "formatted_address": "2275 Market St (at 16th), San Francisco, CA 94114", "locality": "San Francisco", "postcode": "94114", "region": "CA"}, "name": "Dinosaurs", "related_places": {}, "timezone": "America/Los_Angeles"}, {"fsq_id": "4eac41a5dab40d132703fc44", "categories": [{"id": 13046, "name": "Ice Cream Parlor", "short_name": "Ice Cream", "plural_name": "Ice Cream Parlors", "icon": {"prefix": "https://ss3.4sqi.net/img/categories_v2/food/icecream_", "suffix": ".png"}}, {"id": 13049, "name": "Diner", "short_name": "Diner", "plural_name": "Diners", "icon": {"prefix": "https://ss3.4sqi.net/img/categories_v2/food/diner_", "suffix": ".png"}}, {"id": 13334, "name": "Sandwich Spot", "short_name": "Sandwich Spot", "plural_name": "Sandwich Spots", "icon": {"prefix": "https://ss3.4sqi.net/img/categories_v2/food/deli_", "suffix": ".png"}}], "chains": [], "closed_bucket": "LikelyOpen", "distance": 3828, "geocodes": {"main": {"latitude": 37.766429, "longitude": -122.450244}, "roof": {"latitude": 37.766429, "longitude": -122.450244}}, "link": "/v3/places/4eac41a5dab40d132703fc44", "location": {"address": "815 Cole St", "address_extended": "# 3907", "census_block": "060750171023006", "country": "US", "cross_street": "at Carl St", "dma": "San Francisco-Oakland-San Jose", "formatted_address": "815 Cole St (at Carl St), San Francisco, CA 94117", "locality": "San Francisco", "postcode": "94117", "region": "CA"}, "name": "The Ice Cream Bar", "related_places": {}, "timezone": "America/Los_Angeles"}, {"fsq_id": "583638538d8e9962925c86fe", "categories": [{"id": 13272, "name": "Ramen Restaurant", "short_name": "Ramen", "plural_name": "Ramen Restaurants", "icon": {"prefix": "https://ss3.4sqi.net/img/categories_v2/food/ramen_", "suffix": ".png"}}], "chains": [], "closed_bucket": "LikelyOpen", "distance": 1839, "geocodes": {"drop_off": {"latitude": 37.786245, "longitude": -122.429943}, "main": {"latitude": 37.786193, "longitude": -122.430202}, "roof": {"latitude": 37.786193, "longitude": -122.430202}}, "link": "/v3/places/583638538d8e9962925c86fe", "location": {"address": "1737 Buchanan St", "census_block": "060750155004003", "country": "US", "cross_street": "", "dma": "San Francisco-Oakland-San Jose", "formatted_address": "1737 Buchanan St, San Francisco, CA 94115", "locality": "San Francisco", "postcode": "94115", "region": "CA"}, "name": "Hinodeya Ramen Bar", "related_places": {}, "timezone": "America/Los_Angeles"}, {"fsq_id": "4a91c857f964a520c81b20e3", "categories": [{"id": 13377, "name": "Vegan and Vegetarian Restaurant", "short_name": "Vegan and Vegetarian Restaurant", "plural_name": "Vegan and Vegetarian Restaurants", "icon": {"prefix": "https://ss3.4sqi.net/img/categories_v2/food/vegetarian_", "suffix": ".png"}}], "chains": [], "closed_bucket": "Unsure", "distance": 8514, "geocodes": {"main": {"latitude": 37.760656, "longitude": -122.504063}, "roof": {"latitude": 37.760656, "longitude": -122.504063}}, "link": "/v3/places/4a91c857f964a520c81b20e3", "location": {"address": "3906 Judah St", "address_extended": "# 3906", "census_block": "060750352022001", "country": "US", "cross_street": "at 44th Ave", "dma": "San Francisco-Oakland-San Jose", "formatted_address": "3906 Judah St (at 44th Ave), San Francisco, CA 94122", "locality": "San Francisco", "postcode": "94122", "region": "CA"}, "name": "Judahlicious", "related_places": {}, "timezone": "America/Los_Angeles"}, {"fsq_id": "59e7d9cada2e006b9e519959", "categories": [{"id": 13046, "name": "Ice Cream Parlor", "short_name": "Ice Cream", "plural_name": "Ice Cream Parlors", "icon": {"prefix": "https://ss3.4sqi.net/img/categories_v2/food/icecream_", "suffix": ".png"}}, {"id": 13065, "name": "Restaurant", "short_name": "Restaurant", "plural_name": "Restaurants", "icon": {"prefix": "https://ss3.4sqi.net/img/categories_v2/food/default_", "suffix": ".png"}}], "chains": [], "closed_bucket": "VeryLikelyOpen", "distance": 1447, "geocodes": {"drop_off": {"latitude": 37.77652, "longitude": -122.425894}, "main": {"latitude": 37.776655, "longitude": -122.425911}, "roof": {"latitude": 37.776655, "longitude": -122.425911}}, "link": "/v3/places/59e7d9cada2e006b9e519959", "location": {"address": "586 Hayes St", "census_block": "060750162003003", "country": "US", "cross_street": "", "dma": "San Francisco-Oakland-San Jose", "formatted_address": "586 Hayes St, San Francisco, CA 94102", "locality": "San Francisco", "postcode": "94102", "region": "CA"}, "name": "Salt & Straw", "related_places": {}, "timezone": "America/Los_Angeles"}, {"fsq_id": "4a424d0ef964a520b7a51fe3", "categories": [{"id": 17069, "name": "Grocery Store", "short_name": "Grocery Store", "plural_name": "Grocery Stores", "icon": {"prefix": "https://ss3.4sqi.net/img/categories_v2/shops/food_grocery_", "suffix": ".png"}}], "chains": [{"id": "c356152c-f98c-4c43-8a1e-1d16cc9ea1c8", "name": "Whole Foods"}], "closed_bucket": "VeryLikelyOpen", "distance": 904, "geocodes": {"main": {"latitude": 37.781301, "longitude": -122.399735}, "roof": {"latitude": 37.781301, "longitude": -122.399735}}, "link": "/v3/places/4a424d0ef964a520b7a51fe3", "location": {"address": "399 4th St", "census_block": "060750178013003", "country": "US", "cross_street": "at Harrison St", "dma": "San Francisco-Oakland-San Jose", "formatted_address": "399 4th St (at Harrison St), San Francisco, CA 94107", "locality": "San Francisco", "postcode": "94107", "region": "CA"}, "name": "Whole Foods", "related_places": {"children": []}, "timezone": "America/Los_Angeles"}, {"fsq_id": "4a708c9df964a520c7d71fe3", "categories": [{"id": 13068, "name": "American Restaurant", "short_name": "American", "plural_name": "American Restaurants", "icon": {"prefix": "https://ss3.4sqi.net/img/categories_v2/food/default_", "suffix": ".png"}}, {"id": 13344, "name": "Southern Food Restaurant", "short_name": "Southern / Soul", "plural_name": "Southern Food Restaurants", "icon": {"prefix": "https://ss3.4sqi.net/img/categories_v2/food/southern_", "suffix": ".png"}}, {"id": 13377, "name": "Vegan and Vegetarian Restaurant", "short_name": "Vegan and Vegetarian Restaurant", "plural_name": "Vegan and Vegetarian Restaurants", "icon": {"prefix": "https://ss3.4sqi.net/img/categories_v2/food/vegetarian_", "suffix": ".png"}}], "chains": [], "closed_bucket": "LikelyOpen", "distance": 11934, "geocodes": {"main": {"latitude": 37.797037, "longitude": -122.276074}, "roof": {"latitude": 37.797037, "longitude": -122.276074}}, "link": "/v3/places/4a708c9df964a520c7d71fe3", "location": {"address": "301 Broadway", "census_block": "060019832001006", "country": "US", "cross_street": "at 3rd St", "dma": "San Francisco-Oakland-San Jose", "formatted_address": "301 Broadway (at 3rd St), Oakland, CA 94607", "locality": "Oakland", "postcode": "94607", "region": "CA"}, "name": "Souley Vegan", "related_places": {}, "timezone": "America/Los_Angeles"}, {"fsq_id": "45eaff58f964a5208e431fe3", "categories": [{"id": 13002, "name": "Bakery", "short_name": "Bakery", "plural_name": "Bakeries", "icon": {"prefix": "https://ss3.4sqi.net/img/categories_v2/food/bakery_", "suffix": ".png"}}, {"id": 13031, "name": "Burger Joint", "short_name": "Burgers", "plural_name": "Burger Joints", "icon": {"prefix": "https://ss3.4sqi.net/img/categories_v2/food/burger_", "suffix": ".png"}}, {"id": 13046, "name": "Ice Cream Parlor", "short_name": "Ice Cream", "plural_name": "Ice Cream Parlors", "icon": {"prefix": "https://ss3.4sqi.net/img/categories_v2/food/icecream_", "suffix": ".png"}}], "chains": [], "closed_bucket": "LikelyOpen", "distance": 2506, "geocodes": {"main": {"latitude": 37.761575, "longitude": -122.425736}, "roof": {"latitude": 37.761575, "longitude": -122.425736}}, "link": "/v3/places/45eaff58f964a5208e431fe3", "location": {"address": "3692 18th St", "census_block": "060750207021003", "country": "US", "cross_street": "at Dolores St", "dma": "San Francisco-Oakland-San Jose", "formatted_address": "3692 18th St (at Dolores St), San Francisco, CA 94110", "locality": "San Francisco", "postcode": "94110", "region": "CA"}, "name": "Bi-Rite Creamery Truck", "related_places": {"children": []}, "timezone": "America/Los_Angeles"}, {"fsq_id": "4b54df8ff964a520c7d027e3", "categories": [{"id": 17069, "name": "Grocery Store", "short_name": "Grocery Store", "plural_name": "Grocery Stores", "icon": {"prefix": "https://ss3.4sqi.net/img/categories_v2/shops/food_grocery_", "suffix": ".png"}}], "chains": [], "closed_bucket": "Unsure", "distance": 986, "geocodes": {"drop_off": {"latitude": 37.77273, "longitude": -122.416035}, "main": {"latitude": 37.77286, "longitude": -122.416154}, "roof": {"latitude": 37.77286, "longitude": -122.416154}}, "link": "/v3/places/4b54df8ff964a520c7d027e3", "location": {"address": "1530 Howard St", "address_extended": "# AT", "census_block": "060750177002005", "country": "US", "cross_street": "at 11th St", "dma": "San Francisco-Oakland-San Jose", "formatted_address": "1530 Howard St (at 11th St), San Francisco, CA 94103", "locality": "San Francisco", "postcode": "94103", "region": "CA"}, "name": "Ted\u2019s Market", "related_places": {}, "timezone": "America/Los_Angeles"}, {"fsq_id": "5c09e17b894eac002c3810b9", "categories": [{"id": 13064, "name": "Pizzeria", "short_name": "Pizza", "plural_name": "Pizzerias", "icon": {"prefix": "https://ss3.4sqi.net/img/categories_v2/food/pizza_", "suffix": ".png"}}, {"id": 13388, "name": "Wings Joint", "short_name": "Wings", "plural_name": "Wings Joints", "icon": {"prefix": "https://ss3.4sqi.net/img/categories_v2/food/wings_", "suffix": ".png"}}], "chains": [], "closed_bucket": "LikelyOpen", "distance": 141, "geocodes": {"main": {"latitude": 37.77953, "longitude": -122.410096}, "roof": {"latitude": 37.77953, "longitude": -122.410096}}, "link": "/v3/places/5c09e17b894eac002c3810b9", "location": {"address": "1077 Mission St", "census_block": "060750176021000", "country": "US", "cross_street": "7th Street", "dma": "San Francisco-Oakland-San Jose", "formatted_address": "1077 Mission St (7th Street), San Francisco, CA 94103", "locality": "San Francisco", "postcode": "94103", "region": "CA"}, "name": "Square Pie Guys", "related_places": {}, "timezone": "America/Los_Angeles"}, {"fsq_id": "4a4b8a43f964a5206fac1fe3", "categories": [{"id": 13034, "name": "Caf\u00e9", "short_name": "Caf\u00e9", "plural_name": "Caf\u00e9s", "icon": {"prefix": "https://ss3.4sqi.net/img/categories_v2/food/cafe_", "suffix": ".png"}}, {"id": 13035, "name": "Coffee Shop", "short_name": "Coffee Shop", "plural_name": "Coffee Shops", "icon": {"prefix": "https://ss3.4sqi.net/img/categories_v2/food/coffeeshop_", "suffix": ".png"}}, {"id": 13065, "name": "Restaurant", "short_name": "Restaurant", "plural_name": "Restaurants", "icon": {"prefix": "https://ss3.4sqi.net/img/categories_v2/food/default_", "suffix": ".png"}}], "chains": [], "closed_bucket": "LikelyOpen", "distance": 412, "geocodes": {"main": {"latitude": 37.776972, "longitude": -122.408512}, "roof": {"latitude": 37.776972, "longitude": -122.408512}}, "link": "/v3/places/4a4b8a43f964a5206fac1fe3", "location": {"address": "270 7th St", "census_block": "060750178041004", "country": "US", "cross_street": "btwn Howard & Folsom St", "dma": "San Francisco-Oakland-San Jose", "formatted_address": "270 7th St (btwn Howard & Folsom St), San Francisco, CA 94103", "locality": "San Francisco", "postcode": "94103", "region": "CA"}, "name": "Sightglass Coffee", "related_places": {"children": []}, "timezone": "America/Los_Angeles"}, {"fsq_id": "4fc7c071e4b06e4ecff8e93d", "categories": [{"id": 14013, "name": "Street Food Gathering", "short_name": "Street Food Gathering", "plural_name": "Street Food Gatherings", "icon": {"prefix": "https://ss3.4sqi.net/img/categories_v2/food/streetfood_", "suffix": ".png"}}], "chains": [], "closed_bucket": "LikelyOpen", "distance": 1205, "geocodes": {"main": {"latitude": 37.769745, "longitude": -122.412028}, "roof": {"latitude": 37.769745, "longitude": -122.412028}}, "link": "/v3/places/4fc7c071e4b06e4ecff8e93d", "location": {"address": "428 11th St", "census_block": "060750177001007", "country": "US", "cross_street": "at Division St", "dma": "San Francisco-Oakland-San Jose", "formatted_address": "428 11th St (at Division St), San Francisco, CA 94103", "locality": "San Francisco", "postcode": "94103", "region": "CA"}, "name": "SOMA StrEat Food Park", "related_places": {"children": [{"fsq_id": "59b025c6018cbb2d4cdd23ea", "categories": [{"id": 13000, "name": "Dining and Drinking", "short_name": "Dining and Drinking", "plural_name": "Dining and Drinking", "icon": {"prefix": "https://ss3.4sqi.net/img/categories_v2/food/default_", "suffix": ".png"}}], "name": "Cochinita"}, {"fsq_id": "51422894e4b0158def8aea54", "categories": [{"id": 13064, "name": "Pizzeria", "short_name": "Pizza", "plural_name": "Pizzerias", "icon": {"prefix": "https://ss3.4sqi.net/img/categories_v2/food/pizza_", "suffix": ".png"}}], "name": "Firetrail Pizza"}, {"fsq_id": "5025567ee4b0c6da26677c3c", "categories": [{"id": 13000, "name": "Dining and Drinking", "short_name": "Dining and Drinking", "plural_name": "Dining and Drinking", "icon": {"prefix": "https://ss3.4sqi.net/img/categories_v2/food/default_", "suffix": ".png"}}], "name": "Mama Cass"}, {"fsq_id": "559c4792498e284399489148", "categories": [{"id": 13000, "name": "Dining and Drinking", "short_name": "Dining and Drinking", "plural_name": "Dining and Drinking", "icon": {"prefix": "https://ss3.4sqi.net/img/categories_v2/food/default_", "suffix": ".png"}}], "name": "Izzy's Cheesesteaks"}, {"fsq_id": "5f5188211f1b1f180a22a3e5", "categories": [{"id": 11062, "name": "Barbershop", "short_name": "Barbershop", "plural_name": "Barbershops", "icon": {"prefix": "https://ss3.4sqi.net/img/categories_v2/shops/salon_barber_", "suffix": ".png"}}], "name": "The Barber Collective"}]}, "timezone": "America/Los_Angeles"}, {"fsq_id": "50b79653e41247a52b753c67", "categories": [{"id": 13035, "name": "Coffee Shop", "short_name": "Coffee Shop", "plural_name": "Coffee Shops", "icon": {"prefix": "https://ss3.4sqi.net/img/categories_v2/food/coffeeshop_", "suffix": ".png"}}, {"id": 13303, "name": "Mexican Restaurant", "short_name": "Mexican", "plural_name": "Mexican Restaurants", "icon": {"prefix": "https://ss3.4sqi.net/img/categories_v2/food/mexican_", "suffix": ".png"}}, {"id": 13377, "name": "Vegan and Vegetarian Restaurant", "short_name": "Vegan and Vegetarian Restaurant", "plural_name": "Vegan and Vegetarian Restaurants", "icon": {"prefix": "https://ss3.4sqi.net/img/categories_v2/food/vegetarian_", "suffix": ".png"}}], "chains": [], "closed_bucket": "LikelyOpen", "distance": 15063, "geocodes": {"drop_off": {"latitude": 37.828354, "longitude": -122.249836}, "main": {"latitude": 37.828225, "longitude": -122.249738}, "roof": {"latitude": 37.828225, "longitude": -122.249738}}, "link": "/v3/places/50b79653e41247a52b753c67", "location": {"address": "4252 Piedmont Ave", "census_block": "060014041021000", "country": "US", "cross_street": "at Glenwood Ave", "dma": "San Francisco-Oakland-San Jose", "formatted_address": "4252 Piedmont Ave (at Glenwood Ave), Oakland, CA 94611", "locality": "Oakland", "postcode": "94611", "region": "CA"}, "name": "Timeless Coffee", "related_places": {}, "timezone": "America/Los_Angeles"}, {"fsq_id": "5d0a985b972c0d0023090738", "categories": [{"id": 13006, "name": "Beer Bar", "short_name": "Beer Bar", "plural_name": "Beer Bars", "icon": {"prefix": "https://ss3.4sqi.net/img/categories_v2/nightlife/pub_", "suffix": ".png"}}, {"id": 13265, "name": "Japanese Curry Restaurant", "short_name": "Japanese Curry", "plural_name": "Japanese Curry Restaurants", "icon": {"prefix": "https://ss3.4sqi.net/img/categories_v2/food/default_", "suffix": ".png"}}, {"id": 13272, "name": "Ramen Restaurant", "short_name": "Ramen", "plural_name": "Ramen Restaurants", "icon": {"prefix": "https://ss3.4sqi.net/img/categories_v2/food/ramen_", "suffix": ".png"}}], "chains": [], "closed_bucket": "VeryLikelyOpen", "distance": 1660, "geocodes": {"drop_off": {"latitude": 37.794505, "longitude": -122.404444}, "main": {"latitude": 37.794693, "longitude": -122.404467}, "roof": {"latitude": 37.794693, "longitude": -122.404467}}, "link": "/v3/places/5d0a985b972c0d0023090738", "location": {"address": "680 Clay St", "census_block": "060750611012016", "country": "US", "cross_street": "", "dma": "San Francisco-Oakland-San Jose", "formatted_address": "680 Clay St, San Francisco, CA 94111", "locality": "San Francisco", "postcode": "94111", "region": "CA"}, "name": "Hinodeya Downtown", "related_places": {}, "timezone": "America/Los_Angeles"}, {"fsq_id": "58ec10b1fbe8ff51800668de", "categories": [{"id": 13046, "name": "Ice Cream Parlor", "short_name": "Ice Cream", "plural_name": "Ice Cream Parlors", "icon": {"prefix": "https://ss3.4sqi.net/img/categories_v2/food/icecream_", "suffix": ".png"}}, {"id": 13065, "name": "Restaurant", "short_name": "Restaurant", "plural_name": "Restaurants", "icon": {"prefix": "https://ss3.4sqi.net/img/categories_v2/food/default_", "suffix": ".png"}}], "chains": [], "closed_bucket": "Unsure", "distance": 2337, "geocodes": {"drop_off": {"latitude": 37.789999, "longitude": -122.434076}, "main": {"latitude": 37.789968, "longitude": -122.434225}, "roof": {"latitude": 37.789968, "longitude": -122.434225}}, "link": "/v3/places/58ec10b1fbe8ff51800668de", "location": {"address": "2201 Fillmore St", "census_block": "060750135003001", "country": "US", "cross_street": "at Sacramento St", "dma": "San Francisco-Oakland-San Jose", "formatted_address": "2201 Fillmore St (at Sacramento St), San Francisco, CA 94115", "locality": "San Francisco", "postcode": "94115", "region": "CA"}, "name": "Salt & Straw", "related_places": {}, "timezone": "America/Los_Angeles"}, {"fsq_id": "43d3901ef964a5201f2e1fe3", "categories": [{"id": 13032, "name": "Cafe, Coffee, and Tea House", "short_name": "Cafe, Coffee, and Tea House", "plural_name": "Cafes, Coffee, and Tea Houses", "icon": {"prefix": "https://ss3.4sqi.net/img/categories_v2/food/coffeeshop_", "suffix": ".png"}}], "chains": [{"id": "c1f85da3-9e02-4c1f-9c30-f7f426ae078c", "name": "Blue Bottle Coffee"}], "closed_bucket": "LikelyOpen", "distance": 1216, "geocodes": {"main": {"latitude": 37.776304, "longitude": -122.423238}, "roof": {"latitude": 37.776304, "longitude": -122.423238}}, "link": "/v3/places/43d3901ef964a5201f2e1fe3", "location": {"address": "315 Linden St", "census_block": "060750162002003", "country": "US", "cross_street": "btwn Gough & Octavia St", "dma": "San Francisco-Oakland-San Jose", "formatted_address": "315 Linden St (btwn Gough & Octavia St), San Francisco, CA 94102", "locality": "San Francisco", "postcode": "94102", "region": "CA"}, "name": "Blue Bottle Coffee", "related_places": {}, "timezone": "America/Los_Angeles"}, {"fsq_id": "5151a10ce4b06ae7735335db", "categories": [{"id": 13032, "name": "Cafe, Coffee, and Tea House", "short_name": "Cafe, Coffee, and Tea House", "plural_name": "Cafes, Coffee, and Tea Houses", "icon": {"prefix": "https://ss3.4sqi.net/img/categories_v2/food/coffeeshop_", "suffix": ".png"}}], "chains": [{"id": "4e4ae03e-af8e-46a7-96ea-f71871faadb0", "name": "Philz Coffee"}], "closed_bucket": "LikelyOpen", "distance": 584, "geocodes": {"main": {"latitude": 37.781359, "longitude": -122.416942}, "roof": {"latitude": 37.781359, "longitude": -122.416942}}, "link": "/v3/places/5151a10ce4b06ae7735335db", "location": {"address": "399 Golden Gate Ave", "census_block": "060750124051002", "country": "US", "cross_street": "Larkin", "dma": "San Francisco-Oakland-San Jose", "formatted_address": "399 Golden Gate Ave (Larkin), San Francisco, CA 94102", "locality": "San Francisco", "postcode": "94102", "region": "CA"}, "name": "Philz Coffee", "related_places": {}, "timezone": "America/Los_Angeles"}, {"fsq_id": "4dd94350e4cd37c893d8146f", "categories": [{"id": 13035, "name": "Coffee Shop", "short_name": "Coffee Shop", "plural_name": "Coffee Shops", "icon": {"prefix": "https://ss3.4sqi.net/img/categories_v2/food/coffeeshop_", "suffix": ".png"}}, {"id": 13065, "name": "Restaurant", "short_name": "Restaurant", "plural_name": "Restaurants", "icon": {"prefix": "https://ss3.4sqi.net/img/categories_v2/food/default_", "suffix": ".png"}}], "chains": [], "closed_bucket": "VeryLikelyOpen", "distance": 1301, "geocodes": {"main": {"latitude": 37.776396, "longitude": -122.424175}, "roof": {"latitude": 37.776396, "longitude": -122.424175}}, "link": "/v3/places/4dd94350e4cd37c893d8146f", "location": {"address": "432 Octavia St", "address_extended": "# B", "census_block": "060750162002002", "country": "US", "cross_street": "at Hayes St", "dma": "San Francisco-Oakland-San Jose", "formatted_address": "432 Octavia St (at Hayes St), San Francisco, CA 94102", "locality": "San Francisco", "postcode": "94102", "region": "CA"}, "name": "Ritual Coffee Roasters", "related_places": {}, "timezone": "America/Los_Angeles"}, {"fsq_id": "56cb6c51cd1041feeed78868", "categories": [{"id": 13039, "name": "Deli", "short_name": "Deli", "plural_name": "Delis", "icon": {"prefix": "https://ss3.4sqi.net/img/categories_v2/food/deli_", "suffix": ".png"}}, {"id": 13068, "name": "American Restaurant", "short_name": "American", "plural_name": "American Restaurants", "icon": {"prefix": "https://ss3.4sqi.net/img/categories_v2/food/default_", "suffix": ".png"}}, {"id": 13377, "name": "Vegan and Vegetarian Restaurant", "short_name": "Vegan and Vegetarian Restaurant", "plural_name": "Vegan and Vegetarian Restaurants", "icon": {"prefix": "https://ss3.4sqi.net/img/categories_v2/food/vegetarian_", "suffix": ".png"}}], "chains": [], "closed_bucket": "LikelyOpen", "distance": 15820, "geocodes": {"main": {"latitude": 37.871883, "longitude": -122.272071}, "roof": {"latitude": 37.871883, "longitude": -122.272071}}, "link": "/v3/places/56cb6c51cd1041feeed78868", "location": {"address": "1954 University Ave", "census_block": "060014224002012", "country": "US", "cross_street": "", "dma": "San Francisco-Oakland-San Jose", "formatted_address": "1954 University Ave, Berkeley, CA 94704", "locality": "Berkeley", "postcode": "94704", "region": "CA"}, "name": "The Butcher's Son", "related_places": {}, "timezone": "America/Los_Angeles"}, {"fsq_id": "3fd66200f964a520bdf11ee3", "categories": [{"id": 13002, "name": "Bakery", "short_name": "Bakery", "plural_name": "Bakeries", "icon": {"prefix": "https://ss3.4sqi.net/img/categories_v2/food/bakery_", "suffix": ".png"}}, {"id": 13064, "name": "Pizzeria", "short_name": "Pizza", "plural_name": "Pizzerias", "icon": {"prefix": "https://ss3.4sqi.net/img/categories_v2/food/pizza_", "suffix": ".png"}}], "chains": [], "closed_bucket": "Unsure", "distance": 5266, "geocodes": {"main": {"latitude": 37.763387, "longitude": -122.466472}, "roof": {"latitude": 37.763387, "longitude": -122.466472}}, "link": "/v3/places/3fd66200f964a520bdf11ee3", "location": {"address": "1331 9th Ave", "census_block": "060750302022002", "country": "US", "cross_street": "btwn Irving St & Judah St", "dma": "San Francisco-Oakland-San Jose", "formatted_address": "1331 9th Ave (btwn Irving St & Judah St), San Francisco, CA 94122", "locality": "San Francisco", "postcode": "94122", "region": "CA"}, "name": "Arizmendi Bakery", "related_places": {}, "timezone": "America/Los_Angeles"}]